[
	{
		"geonameid": "3040051",
		"name": "les Escaldes",
		"latitude": "42.50729",
		"longitude": "1.53414",
		"country_code": "AD",
		"timezone": "Europe/Andorra",
		"names": {
			"ru": "Эскальдес-Энджордани"
		},
		"fullNames": {
			"ru": "Андорра, Эскальдес-Энджордани"
		}
	},
	{
		"geonameid": "3041563",
		"name": "Andorra la Vella",
		"latitude": "42.50779",
		"longitude": "1.52109",
		"country_code": "AD",
		"timezone": "Europe/Andorra",
		"names": {
			"ru": "Андорра-ла-Велья"
		},
		"fullNames": {
			"ru": "Андорра, Андорра-ла-Велья"
		}
	},
	{
		"geonameid": "290594",
		"name": "Umm Al Quwain City",
		"latitude": "25.56473",
		"longitude": "55.55517",
		"country_code": "AE",
		"timezone": "Asia/Dubai",
		"names": {
			"ru": "Умм-эль-Кайвайн"
		},
		"fullNames": {
			"ru": "ОАЭ, Умм-эль-Кайвайн"
		}
	},
	{
		"geonameid": "291074",
		"name": "Ras Al Khaimah City",
		"latitude": "25.78953",
		"longitude": "55.9432",
		"country_code": "AE",
		"timezone": "Asia/Dubai",
		"names": {
			"ru": "Рас-эль-Хайма"
		},
		"fullNames": {
			"ru": "ОАЭ, Рас-эль-Хайма"
		}
	},
	{
		"geonameid": "291696",
		"name": "Khawr Fakkān",
		"latitude": "25.33132",
		"longitude": "56.34199",
		"country_code": "AE",
		"timezone": "Asia/Dubai",
		"names": {
			"ru": "Хор-Факкан"
		},
		"fullNames": {
			"ru": "ОАЭ, Хор-Факкан"
		}
	},
	{
		"geonameid": "292223",
		"name": "Dubai",
		"latitude": "25.07725",
		"longitude": "55.30927",
		"country_code": "AE",
		"timezone": "Asia/Dubai",
		"names": {
			"ru": "Дубай"
		},
		"fullNames": {
			"ru": "ОАЭ, Дубай"
		}
	},
	{
		"geonameid": "292239",
		"name": "Dibba Al-Hisn",
		"latitude": "25.61955",
		"longitude": "56.27291",
		"country_code": "AE",
		"timezone": "Asia/Dubai",
		"names": {
			"ru": "Дибба Аль-Хисн"
		},
		"fullNames": {
			"ru": "ОАЭ, Дибба Аль-Хисн"
		}
	},
	{
		"geonameid": "292672",
		"name": "Sharjah",
		"latitude": "25.33737",
		"longitude": "55.41206",
		"country_code": "AE",
		"timezone": "Asia/Dubai",
		"names": {
			"ru": "Шарджа"
		},
		"fullNames": {
			"ru": "ОАЭ, Шарджа"
		}
	},
	{
		"geonameid": "292688",
		"name": "Ar Ruways",
		"latitude": "24.11028",
		"longitude": "52.73056",
		"country_code": "AE",
		"timezone": "Asia/Dubai",
		"names": {
			"ru": "Ар-Руваис"
		},
		"fullNames": {
			"ru": "ОАЭ, Ар-Руваис"
		}
	},
	{
		"geonameid": "292878",
		"name": "Al Fujairah City",
		"latitude": "25.11641",
		"longitude": "56.34141",
		"country_code": "AE",
		"timezone": "Asia/Dubai",
		"names": {
			"ru": "Фуджейра"
		},
		"fullNames": {
			"ru": "ОАЭ, Фуджейра"
		}
	},
	{
		"geonameid": "292913",
		"name": "Al Ain City",
		"latitude": "24.19167",
		"longitude": "55.76056",
		"country_code": "AE",
		"timezone": "Asia/Dubai",
		"names": {
			"ru": "Эль-Айн"
		},
		"fullNames": {
			"ru": "ОАЭ, Эль-Айн"
		}
	},
	{
		"geonameid": "292968",
		"name": "Abu Dhabi",
		"latitude": "24.45118",
		"longitude": "54.39696",
		"country_code": "AE",
		"timezone": "Asia/Dubai",
		"names": {
			"ru": "Абу-Даби"
		},
		"fullNames": {
			"ru": "ОАЭ, Абу-Даби"
		}
	},
	{
		"geonameid": "12042053",
		"name": "Musaffah",
		"latitude": "24.35893",
		"longitude": "54.48267",
		"country_code": "AE",
		"timezone": "Asia/Dubai",
		"names": {
			"ru": "Мусаффа"
		},
		"fullNames": {
			"ru": "ОАЭ, Мусаффа"
		}
	},
	{
		"geonameid": "1120985",
		"name": "Zaranj",
		"latitude": "30.95962",
		"longitude": "61.86037",
		"country_code": "AF",
		"timezone": "Asia/Kabul",
		"names": {
			"ru": "Зарани"
		},
		"fullNames": {
			"ru": "Афганистан, Зарани"
		}
	},
	{
		"geonameid": "1123004",
		"name": "Taloqan",
		"latitude": "36.73605",
		"longitude": "69.53451",
		"country_code": "AF",
		"timezone": "Asia/Kabul",
		"names": {
			"ru": "Таликан"
		},
		"fullNames": {
			"ru": "Афганистан, Таликан"
		}
	},
	{
		"geonameid": "1125155",
		"name": "Shīnḏanḏ",
		"latitude": "33.30294",
		"longitude": "62.1474",
		"country_code": "AF",
		"timezone": "Asia/Kabul",
		"names": {
			"ru": "Шинданд"
		},
		"fullNames": {
			"ru": "Афганистан, Шинданд"
		}
	},
	{
		"geonameid": "1125444",
		"name": "Shibirghān",
		"latitude": "36.66757",
		"longitude": "65.7529",
		"country_code": "AF",
		"timezone": "Asia/Kabul",
		"names": {
			"ru": "Шеберган"
		},
		"fullNames": {
			"ru": "Афганистан, Шеберган"
		}
	},
	{
		"geonameid": "1127110",
		"name": "Sar-e Pul",
		"latitude": "36.21544",
		"longitude": "65.93249",
		"country_code": "AF",
		"timezone": "Asia/Kabul",
		"names": {
			"ru": "Сари-Пуль"
		},
		"fullNames": {
			"ru": "Афганистан, Сари-Пуль"
		}
	},
	{
		"geonameid": "1127768",
		"name": "Aībak",
		"latitude": "36.26468",
		"longitude": "68.01551",
		"country_code": "AF",
		"timezone": "Asia/Kabul",
		"names": {
			"ru": "Саманган"
		},
		"fullNames": {
			"ru": "Афганистан, Саманган"
		}
	},
	{
		"geonameid": "1129516",
		"name": "Qarqīn",
		"latitude": "37.41853",
		"longitude": "66.04358",
		"country_code": "AF",
		"timezone": "Asia/Kabul",
		"names": {
			"ru": "Кханика"
		},
		"fullNames": {
			"ru": "Афганистан, Кханика"
		}
	},
	{
		"geonameid": "1130490",
		"name": "Pul-e Khumrī",
		"latitude": "35.94458",
		"longitude": "68.71512",
		"country_code": "AF",
		"timezone": "Asia/Kabul",
		"names": {
			"ru": "Пули-Хумри"
		},
		"fullNames": {
			"ru": "Афганистан, Пули-Хумри"
		}
	},
	{
		"geonameid": "1131316",
		"name": "Paghmān",
		"latitude": "34.58787",
		"longitude": "68.95091",
		"country_code": "AF",
		"timezone": "Asia/Kabul",
		"names": {
			"ru": "Пагман"
		},
		"fullNames": {
			"ru": "Афганистан, Пагман"
		}
	},
	{
		"geonameid": "1132495",
		"name": "Nahrīn",
		"latitude": "36.0649",
		"longitude": "69.13343",
		"country_code": "AF",
		"timezone": "Asia/Kabul",
		"names": {
			"ru": "Нахрин"
		},
		"fullNames": {
			"ru": "Афганистан, Нахрин"
		}
	},
	{
		"geonameid": "1133453",
		"name": "Maymana",
		"latitude": "35.92139",
		"longitude": "64.78361",
		"country_code": "AF",
		"timezone": "Asia/Kabul",
		"names": {
			"ru": "Меймене"
		},
		"fullNames": {
			"ru": "Афганистан, Меймене"
		}
	},
	{
		"geonameid": "1133574",
		"name": "Mehtar Lām",
		"latitude": "34.67139",
		"longitude": "70.20944",
		"country_code": "AF",
		"timezone": "Asia/Kabul",
		"names": {
			"ru": "Митарлам"
		},
		"fullNames": {
			"ru": "Афганистан, Митарлам"
		}
	},
	{
		"geonameid": "1133616",
		"name": "Mazār-e Sharīf",
		"latitude": "36.70904",
		"longitude": "67.11087",
		"country_code": "AF",
		"timezone": "Asia/Kabul",
		"names": {
			"ru": "Мазари-Шариф"
		},
		"fullNames": {
			"ru": "Афганистан, Мазари-Шариф"
		}
	},
	{
		"geonameid": "1134720",
		"name": "Lashkar Gāh",
		"latitude": "31.59382",
		"longitude": "64.37161",
		"country_code": "AF",
		"timezone": "Asia/Kabul",
		"names": {
			"ru": "Лашкаргах"
		},
		"fullNames": {
			"ru": "Афганистан, Лашкаргах"
		}
	},
	{
		"geonameid": "1135158",
		"name": "Kushk",
		"latitude": "33.29565",
		"longitude": "61.95221",
		"country_code": "AF",
		"timezone": "Asia/Kabul",
		"names": {
			"ru": "Кушк"
		},
		"fullNames": {
			"ru": "Афганистан, Кушк"
		}
	},
	{
		"geonameid": "1135689",
		"name": "Kunduz",
		"latitude": "36.72895",
		"longitude": "68.857",
		"country_code": "AF",
		"timezone": "Asia/Kabul",
		"names": {
			"ru": "Кундуз"
		},
		"fullNames": {
			"ru": "Афганистан, Кундуз"
		}
	},
	{
		"geonameid": "1136469",
		"name": "Khōst",
		"latitude": "33.33951",
		"longitude": "69.92041",
		"country_code": "AF",
		"timezone": "Asia/Kabul",
		"names": {
			"ru": "Хост"
		},
		"fullNames": {
			"ru": "Афганистан, Хост"
		}
	},
	{
		"geonameid": "1136575",
		"name": "Khulm",
		"latitude": "36.69736",
		"longitude": "67.69826",
		"country_code": "AF",
		"timezone": "Asia/Kabul",
		"names": {
			"ru": "Ташкурган"
		},
		"fullNames": {
			"ru": "Афганистан, Ташкурган"
		}
	},
	{
		"geonameid": "1137168",
		"name": "Khanabad",
		"latitude": "36.68304",
		"longitude": "69.11279",
		"country_code": "AF",
		"timezone": "Asia/Kabul",
		"names": {
			"ru": "Ханабад"
		},
		"fullNames": {
			"ru": "Афганистан, Ханабад"
		}
	},
	{
		"geonameid": "1138336",
		"name": "Kandahār",
		"latitude": "31.61332",
		"longitude": "65.71013",
		"country_code": "AF",
		"timezone": "Asia/Kabul",
		"names": {
			"ru": "Кандагар"
		},
		"fullNames": {
			"ru": "Афганистан, Кандагар"
		}
	},
	{
		"geonameid": "1138958",
		"name": "Kabul",
		"latitude": "34.52813",
		"longitude": "69.17233",
		"country_code": "AF",
		"timezone": "Asia/Kabul",
		"names": {
			"ru": "Кабул"
		},
		"fullNames": {
			"ru": "Афганистан, Кабул"
		}
	},
	{
		"geonameid": "1139715",
		"name": "Jalālābād",
		"latitude": "34.42647",
		"longitude": "70.45153",
		"country_code": "AF",
		"timezone": "Asia/Kabul",
		"names": {
			"ru": "Джелалабад"
		},
		"fullNames": {
			"ru": "Афганистан, Джелалабад"
		}
	},
	{
		"geonameid": "1139807",
		"name": "Jabal os Saraj",
		"latitude": "35.11833",
		"longitude": "69.23778",
		"country_code": "AF",
		"timezone": "Asia/Kabul",
		"names": {
			"ru": "Dzhabal’-Ussaradzh"
		},
		"fullNames": {
			"ru": "Афганистан, Dzhabal’-Ussaradzh"
		}
	},
	{
		"geonameid": "1140026",
		"name": "Herāt",
		"latitude": "34.34817",
		"longitude": "62.19967",
		"country_code": "AF",
		"timezone": "Asia/Kabul",
		"names": {
			"ru": "Герат"
		},
		"fullNames": {
			"ru": "Афганистан, Герат"
		}
	},
	{
		"geonameid": "1141269",
		"name": "Ghazni",
		"latitude": "33.55391",
		"longitude": "68.42096",
		"country_code": "AF",
		"timezone": "Asia/Kabul",
		"names": {
			"ru": "Газни"
		},
		"fullNames": {
			"ru": "Афганистан, Газни"
		}
	},
	{
		"geonameid": "1141540",
		"name": "Gereshk",
		"latitude": "31.82089",
		"longitude": "64.57005",
		"country_code": "AF",
		"timezone": "Asia/Kabul",
		"names": {
			"ru": "Герешк"
		},
		"fullNames": {
			"ru": "Афганистан, Герешк"
		}
	},
	{
		"geonameid": "1141857",
		"name": "Gardez",
		"latitude": "33.59744",
		"longitude": "69.22592",
		"country_code": "AF",
		"timezone": "Asia/Kabul",
		"names": {
			"ru": "Гардез"
		},
		"fullNames": {
			"ru": "Афганистан, Гардез"
		}
	},
	{
		"geonameid": "1142170",
		"name": "Fayzabad",
		"latitude": "37.11664",
		"longitude": "70.58002",
		"country_code": "AF",
		"timezone": "Asia/Kabul",
		"names": {
			"ru": "Файзабад"
		},
		"fullNames": {
			"ru": "Афганистан, Файзабад"
		}
	},
	{
		"geonameid": "1142264",
		"name": "Farah",
		"latitude": "32.37451",
		"longitude": "62.11638",
		"country_code": "AF",
		"timezone": "Asia/Kabul",
		"names": {
			"ru": "Фарах"
		},
		"fullNames": {
			"ru": "Афганистан, Фарах"
		}
	},
	{
		"geonameid": "1145352",
		"name": "Charikar",
		"latitude": "35.01361",
		"longitude": "69.17139",
		"country_code": "AF",
		"timezone": "Asia/Kabul",
		"names": {
			"ru": "Чарикар"
		},
		"fullNames": {
			"ru": "Афганистан, Чарикар"
		}
	},
	{
		"geonameid": "1147290",
		"name": "Balkh",
		"latitude": "36.75635",
		"longitude": "66.8972",
		"country_code": "AF",
		"timezone": "Asia/Kabul",
		"names": {
			"ru": "Вазирабад"
		},
		"fullNames": {
			"ru": "Афганистан, Вазирабад"
		}
	},
	{
		"geonameid": "1147540",
		"name": "Baghlān",
		"latitude": "36.13068",
		"longitude": "68.70829",
		"country_code": "AF",
		"timezone": "Asia/Kabul",
		"names": {
			"ru": "Баглан"
		},
		"fullNames": {
			"ru": "Афганистан, Баглан"
		}
	},
	{
		"geonameid": "1148311",
		"name": "Asadābād",
		"latitude": "34.87311",
		"longitude": "71.14697",
		"country_code": "AF",
		"timezone": "Asia/Kabul",
		"names": {
			"ru": "Асадабад"
		},
		"fullNames": {
			"ru": "Афганистан, Асадабад"
		}
	},
	{
		"geonameid": "1429434",
		"name": "Bāzārak",
		"latitude": "35.31292",
		"longitude": "69.51519",
		"country_code": "AF",
		"timezone": "Asia/Kabul",
		"names": {
			"ru": "Базарак"
		},
		"fullNames": {
			"ru": "Афганистан, Базарак"
		}
	},
	{
		"geonameid": "3576022",
		"name": "Saint John’s",
		"latitude": "17.12096",
		"longitude": "-61.84329",
		"country_code": "AG",
		"timezone": "America/Antigua",
		"names": {
			"ru": "Сент-Джонс"
		},
		"fullNames": {
			"ru": "Антигуа и Барбуда, Сент-Джонс"
		}
	},
	{
		"geonameid": "3573374",
		"name": "The Valley",
		"latitude": "18.21704",
		"longitude": "-63.05783",
		"country_code": "AI",
		"timezone": "America/Anguilla",
		"names": {
			"ru": "Валли"
		},
		"fullNames": {
			"ru": "Ангилья, Валли"
		}
	},
	{
		"geonameid": "363243",
		"name": "Sarandë",
		"latitude": "39.87534",
		"longitude": "20.00477",
		"country_code": "AL",
		"timezone": "Europe/Tirane",
		"names": {
			"ru": "Саранда"
		},
		"fullNames": {
			"ru": "Албания, Саранда"
		}
	},
	{
		"geonameid": "781988",
		"name": "Pogradec",
		"latitude": "40.9025",
		"longitude": "20.6525",
		"country_code": "AL",
		"timezone": "Europe/Tirane",
		"names": {
			"ru": "Поградец"
		},
		"fullNames": {
			"ru": "Албания, Поградец"
		}
	},
	{
		"geonameid": "782661",
		"name": "Kukës",
		"latitude": "42.07694",
		"longitude": "20.42194",
		"country_code": "AL",
		"timezone": "Europe/Tirane",
		"names": {
			"ru": "Кукес"
		},
		"fullNames": {
			"ru": "Албания, Кукес"
		}
	},
	{
		"geonameid": "782756",
		"name": "Korçë",
		"latitude": "40.61861",
		"longitude": "20.78083",
		"country_code": "AL",
		"timezone": "Europe/Tirane",
		"names": {
			"ru": "Корча"
		},
		"fullNames": {
			"ru": "Албания, Корча"
		}
	},
	{
		"geonameid": "783148",
		"name": "Gjirokastër",
		"latitude": "40.07583",
		"longitude": "20.13889",
		"country_code": "AL",
		"timezone": "Europe/Tirane",
		"names": {
			"ru": "Гирокастра"
		},
		"fullNames": {
			"ru": "Албания, Гирокастра"
		}
	},
	{
		"geonameid": "783263",
		"name": "Elbasan",
		"latitude": "41.1125",
		"longitude": "20.08222",
		"country_code": "AL",
		"timezone": "Europe/Tirane",
		"names": {
			"ru": "Эльбасан"
		},
		"fullNames": {
			"ru": "Албания, Эльбасан"
		}
	},
	{
		"geonameid": "783493",
		"name": "Burrel",
		"latitude": "41.61028",
		"longitude": "20.00889",
		"country_code": "AL",
		"timezone": "Europe/Tirane",
		"names": {
			"ru": "Буррель"
		},
		"fullNames": {
			"ru": "Албания, Буррель"
		}
	},
	{
		"geonameid": "3183719",
		"name": "Vlorë",
		"latitude": "40.4686",
		"longitude": "19.48318",
		"country_code": "AL",
		"timezone": "Europe/Tirane",
		"names": {
			"ru": "Влёра"
		},
		"fullNames": {
			"ru": "Албания, Влёра"
		}
	},
	{
		"geonameid": "3183875",
		"name": "Tirana",
		"latitude": "41.3275",
		"longitude": "19.81889",
		"country_code": "AL",
		"timezone": "Europe/Tirane",
		"names": {
			"ru": "Тирана"
		},
		"fullNames": {
			"ru": "Албания, Тирана"
		}
	},
	{
		"geonameid": "3184081",
		"name": "Shkodër",
		"latitude": "42.06828",
		"longitude": "19.51258",
		"country_code": "AL",
		"timezone": "Europe/Tirane",
		"names": {
			"ru": "Шкодер"
		},
		"fullNames": {
			"ru": "Албания, Шкодер"
		}
	},
	{
		"geonameid": "3184518",
		"name": "Patos",
		"latitude": "40.68333",
		"longitude": "19.61944",
		"country_code": "AL",
		"timezone": "Europe/Tirane",
		"names": {
			"ru": "Патос"
		},
		"fullNames": {
			"ru": "Албания, Патос"
		}
	},
	{
		"geonameid": "3184862",
		"name": "Lushnjë",
		"latitude": "40.94194",
		"longitude": "19.705",
		"country_code": "AL",
		"timezone": "Europe/Tirane",
		"names": {
			"ru": "Люшня"
		},
		"fullNames": {
			"ru": "Албания, Люшня"
		}
	},
	{
		"geonameid": "3184935",
		"name": "Lezhë",
		"latitude": "41.78361",
		"longitude": "19.64361",
		"country_code": "AL",
		"timezone": "Europe/Tirane",
		"names": {
			"ru": "Лежа"
		},
		"fullNames": {
			"ru": "Албания, Лежа"
		}
	},
	{
		"geonameid": "3185012",
		"name": "Laç",
		"latitude": "41.63556",
		"longitude": "19.71306",
		"country_code": "AL",
		"timezone": "Europe/Tirane",
		"names": {
			"ru": "Лак"
		},
		"fullNames": {
			"ru": "Албания, Лак"
		}
	},
	{
		"geonameid": "3185060",
		"name": "Kuçovë",
		"latitude": "40.80028",
		"longitude": "19.91667",
		"country_code": "AL",
		"timezone": "Europe/Tirane",
		"names": {
			"ru": "Кучова"
		},
		"fullNames": {
			"ru": "Албания, Кучова"
		}
	},
	{
		"geonameid": "3185082",
		"name": "Krujë",
		"latitude": "41.50917",
		"longitude": "19.79278",
		"country_code": "AL",
		"timezone": "Europe/Tirane",
		"names": {
			"ru": "Круе"
		},
		"fullNames": {
			"ru": "Албания, Круе"
		}
	},
	{
		"geonameid": "3185211",
		"name": "Kavajë",
		"latitude": "41.18556",
		"longitude": "19.55694",
		"country_code": "AL",
		"timezone": "Europe/Tirane",
		"names": {
			"ru": "Кавайе"
		},
		"fullNames": {
			"ru": "Албания, Кавайе"
		}
	},
	{
		"geonameid": "3185672",
		"name": "Fier",
		"latitude": "40.72389",
		"longitude": "19.55611",
		"country_code": "AL",
		"timezone": "Europe/Tirane",
		"names": {
			"ru": "Фиери"
		},
		"fullNames": {
			"ru": "Албания, Фиери"
		}
	},
	{
		"geonameid": "3185728",
		"name": "Durrës",
		"latitude": "41.32355",
		"longitude": "19.45469",
		"country_code": "AL",
		"timezone": "Europe/Tirane",
		"names": {
			"ru": "Дуррес"
		},
		"fullNames": {
			"ru": "Албания, Дуррес"
		}
	},
	{
		"geonameid": "3186084",
		"name": "Berat",
		"latitude": "40.70583",
		"longitude": "19.95222",
		"country_code": "AL",
		"timezone": "Europe/Tirane",
		"names": {
			"ru": "Берат"
		},
		"fullNames": {
			"ru": "Албания, Берат"
		}
	},
	{
		"geonameid": "174875",
		"name": "Kapan",
		"latitude": "39.20755",
		"longitude": "46.40576",
		"country_code": "AM",
		"timezone": "Asia/Yerevan",
		"names": {
			"ru": "Капан"
		},
		"fullNames": {
			"ru": "Армения, Капан"
		}
	},
	{
		"geonameid": "174895",
		"name": "Goris",
		"latitude": "39.51111",
		"longitude": "46.34168",
		"country_code": "AM",
		"timezone": "Asia/Yerevan",
		"names": {
			"ru": "Горис"
		},
		"fullNames": {
			"ru": "Армения, Горис"
		}
	},
	{
		"geonameid": "174972",
		"name": "Hats’avan",
		"latitude": "39.46405",
		"longitude": "45.97047",
		"country_code": "AM",
		"timezone": "Asia/Yerevan",
		"names": {
			"ru": "Ацаван"
		},
		"fullNames": {
			"ru": "Армения, Ацаван"
		}
	},
	{
		"geonameid": "174979",
		"name": "Artashat",
		"latitude": "39.96144",
		"longitude": "44.54447",
		"country_code": "AM",
		"timezone": "Asia/Yerevan",
		"names": {
			"ru": "Арташат"
		},
		"fullNames": {
			"ru": "Армения, Арташат"
		}
	},
	{
		"geonameid": "174991",
		"name": "Ararat",
		"latitude": "39.83069",
		"longitude": "44.70569",
		"country_code": "AM",
		"timezone": "Asia/Yerevan",
		"names": {
			"ru": "Арарат"
		},
		"fullNames": {
			"ru": "Армения, Арарат"
		}
	},
	{
		"geonameid": "616052",
		"name": "Yerevan",
		"latitude": "40.18111",
		"longitude": "44.51361",
		"country_code": "AM",
		"timezone": "Asia/Yerevan",
		"names": {
			"ru": "Ереван"
		},
		"fullNames": {
			"ru": "Армения, Ереван"
		}
	},
	{
		"geonameid": "616062",
		"name": "Vagharshapat",
		"latitude": "40.16557",
		"longitude": "44.29462",
		"country_code": "AM",
		"timezone": "Asia/Yerevan",
		"names": {
			"ru": "Эчмиадзин"
		},
		"fullNames": {
			"ru": "Армения, Эчмиадзин"
		}
	},
	{
		"geonameid": "616194",
		"name": "Step’anavan",
		"latitude": "41.00995",
		"longitude": "44.38531",
		"country_code": "AM",
		"timezone": "Asia/Yerevan",
		"names": {
			"ru": "Степанаван"
		},
		"fullNames": {
			"ru": "Армения, Степанаван"
		}
	},
	{
		"geonameid": "616199",
		"name": "Spitak",
		"latitude": "40.83221",
		"longitude": "44.26731",
		"country_code": "AM",
		"timezone": "Asia/Yerevan",
		"names": {
			"ru": "Спитак"
		},
		"fullNames": {
			"ru": "Армения, Спитак"
		}
	},
	{
		"geonameid": "616250",
		"name": "Sevan",
		"latitude": "40.5473",
		"longitude": "44.94171",
		"country_code": "AM",
		"timezone": "Asia/Yerevan",
		"names": {
			"ru": "Севан"
		},
		"fullNames": {
			"ru": "Армения, Севан"
		}
	},
	{
		"geonameid": "616435",
		"name": "Masis",
		"latitude": "40.06572",
		"longitude": "44.41913",
		"country_code": "AM",
		"timezone": "Asia/Yerevan",
		"names": {
			"ru": "Масис"
		},
		"fullNames": {
			"ru": "Армения, Масис"
		}
	},
	{
		"geonameid": "616530",
		"name": "Vanadzor",
		"latitude": "40.80456",
		"longitude": "44.4939",
		"country_code": "AM",
		"timezone": "Asia/Yerevan",
		"names": {
			"ru": "Кировакан"
		},
		"fullNames": {
			"ru": "Армения, Кировакан"
		}
	},
	{
		"geonameid": "616599",
		"name": "Gavarr",
		"latitude": "40.35398",
		"longitude": "45.12386",
		"country_code": "AM",
		"timezone": "Asia/Yerevan",
		"names": {
			"ru": "Камо"
		},
		"fullNames": {
			"ru": "Армения, Камо"
		}
	},
	{
		"geonameid": "616629",
		"name": "Hrazdan",
		"latitude": "40.49748",
		"longitude": "44.7662",
		"country_code": "AM",
		"timezone": "Asia/Yerevan",
		"names": {
			"ru": "Раздан"
		},
		"fullNames": {
			"ru": "Армения, Раздан"
		}
	},
	{
		"geonameid": "616631",
		"name": "Armavir",
		"latitude": "40.15446",
		"longitude": "44.03815",
		"country_code": "AM",
		"timezone": "Asia/Yerevan",
		"names": {
			"ru": "Октембер"
		},
		"fullNames": {
			"ru": "Армения, Октембер"
		}
	},
	{
		"geonameid": "616635",
		"name": "Gyumri",
		"latitude": "40.7942",
		"longitude": "43.84528",
		"country_code": "AM",
		"timezone": "Asia/Yerevan",
		"names": {
			"ru": "Гюмри"
		},
		"fullNames": {
			"ru": "Армения, Гюмри"
		}
	},
	{
		"geonameid": "616877",
		"name": "Ashtarak",
		"latitude": "40.2991",
		"longitude": "44.36204",
		"country_code": "AM",
		"timezone": "Asia/Yerevan",
		"names": {
			"ru": "Аштарак"
		},
		"fullNames": {
			"ru": "Армения, Аштарак"
		}
	},
	{
		"geonameid": "617026",
		"name": "Abovyan",
		"latitude": "40.27368",
		"longitude": "44.63348",
		"country_code": "AM",
		"timezone": "Asia/Yerevan",
		"names": {
			"ru": "Абовян"
		},
		"fullNames": {
			"ru": "Армения, Абовян"
		}
	},
	{
		"geonameid": "145531",
		"name": "Saurimo",
		"latitude": "-9.66078",
		"longitude": "20.39155",
		"country_code": "AO",
		"timezone": "Africa/Luanda",
		"names": {
			"ru": "Сауримо"
		},
		"fullNames": {
			"ru": "Ангола, Сауримо"
		}
	},
	{
		"geonameid": "145724",
		"name": "Lucapa",
		"latitude": "-8.41915",
		"longitude": "20.74466",
		"country_code": "AO",
		"timezone": "Africa/Luanda",
		"names": {
			"ru": "Лукапа"
		},
		"fullNames": {
			"ru": "Ангола, Лукапа"
		}
	},
	{
		"geonameid": "876177",
		"name": "Luau",
		"latitude": "-10.70727",
		"longitude": "22.22466",
		"country_code": "AO",
		"timezone": "Africa/Luanda",
		"names": {
			"ru": "Луау"
		},
		"fullNames": {
			"ru": "Ангола, Луау"
		}
	},
	{
		"geonameid": "2236568",
		"name": "Uíge",
		"latitude": "-7.60874",
		"longitude": "15.06131",
		"country_code": "AO",
		"timezone": "Africa/Luanda",
		"names": {
			"ru": "Уиже"
		},
		"fullNames": {
			"ru": "Ангола, Уиже"
		}
	},
	{
		"geonameid": "2236967",
		"name": "Soio",
		"latitude": "-6.1349",
		"longitude": "12.36894",
		"country_code": "AO",
		"timezone": "Africa/Luanda",
		"names": {
			"ru": "Сойо"
		},
		"fullNames": {
			"ru": "Ангола, Сойо"
		}
	},
	{
		"geonameid": "2239001",
		"name": "N'zeto",
		"latitude": "-7.23116",
		"longitude": "12.8666",
		"country_code": "AO",
		"timezone": "Africa/Luanda",
		"names": {
			"ru": "Нзето"
		},
		"fullNames": {
			"ru": "Ангола, Нзето"
		}
	},
	{
		"geonameid": "2239862",
		"name": "Malanje",
		"latitude": "-9.54015",
		"longitude": "16.34096",
		"country_code": "AO",
		"timezone": "Africa/Luanda",
		"names": {
			"ru": "Маланже"
		},
		"fullNames": {
			"ru": "Ангола, Маланже"
		}
	},
	{
		"geonameid": "2240449",
		"name": "Luanda",
		"latitude": "-8.83682",
		"longitude": "13.23432",
		"country_code": "AO",
		"timezone": "Africa/Luanda",
		"names": {
			"ru": "Луанда"
		},
		"fullNames": {
			"ru": "Ангола, Луанда"
		}
	},
	{
		"geonameid": "2242001",
		"name": "Caxito",
		"latitude": "-8.57848",
		"longitude": "13.66425",
		"country_code": "AO",
		"timezone": "Africa/Luanda",
		"names": {
			"ru": "Кашито"
		},
		"fullNames": {
			"ru": "Ангола, Кашито"
		}
	},
	{
		"geonameid": "2243271",
		"name": "Cabinda",
		"latitude": "-5.55",
		"longitude": "12.2",
		"country_code": "AO",
		"timezone": "Africa/Luanda",
		"names": {
			"ru": "Кабинда"
		},
		"fullNames": {
			"ru": "Ангола, Кабинда"
		}
	},
	{
		"geonameid": "3346015",
		"name": "Sumbe",
		"latitude": "-11.20605",
		"longitude": "13.84371",
		"country_code": "AO",
		"timezone": "Africa/Luanda",
		"names": {
			"ru": "Сумбе"
		},
		"fullNames": {
			"ru": "Ангола, Сумбе"
		}
	},
	{
		"geonameid": "3347019",
		"name": "Moçâmedes",
		"latitude": "-15.19611",
		"longitude": "12.15222",
		"country_code": "AO",
		"timezone": "Africa/Luanda",
		"names": {
			"ru": "Намибе"
		},
		"fullNames": {
			"ru": "Ангола, Намибе"
		}
	},
	{
		"geonameid": "3347353",
		"name": "Menongue",
		"latitude": "-14.6585",
		"longitude": "17.69099",
		"country_code": "AO",
		"timezone": "Africa/Luanda",
		"names": {
			"ru": "Менонге"
		},
		"fullNames": {
			"ru": "Ангола, Менонге"
		}
	},
	{
		"geonameid": "3347719",
		"name": "Luena",
		"latitude": "-11.78333",
		"longitude": "19.91667",
		"country_code": "AO",
		"timezone": "Africa/Luanda",
		"names": {
			"ru": "Луэна"
		},
		"fullNames": {
			"ru": "Ангола, Луэна"
		}
	},
	{
		"geonameid": "3347762",
		"name": "Lubango",
		"latitude": "-14.91717",
		"longitude": "13.4925",
		"country_code": "AO",
		"timezone": "Africa/Luanda",
		"names": {
			"ru": "Лубанго"
		},
		"fullNames": {
			"ru": "Ангола, Лубанго"
		}
	},
	{
		"geonameid": "3347853",
		"name": "Longonjo",
		"latitude": "-12.90667",
		"longitude": "15.25333",
		"country_code": "AO",
		"timezone": "Africa/Luanda",
		"names": {
			"ru": "Логонжу"
		},
		"fullNames": {
			"ru": "Ангола, Логонжу"
		}
	},
	{
		"geonameid": "3347939",
		"name": "Lobito",
		"latitude": "-12.3644",
		"longitude": "13.53601",
		"country_code": "AO",
		"timezone": "Africa/Luanda",
		"names": {
			"ru": "Лобиту"
		},
		"fullNames": {
			"ru": "Ангола, Лобиту"
		}
	},
	{
		"geonameid": "3348078",
		"name": "Cuito",
		"latitude": "-12.38333",
		"longitude": "16.93333",
		"country_code": "AO",
		"timezone": "Africa/Luanda",
		"names": {
			"ru": "Куито"
		},
		"fullNames": {
			"ru": "Ангола, Куито"
		}
	},
	{
		"geonameid": "3348313",
		"name": "Huambo",
		"latitude": "-12.77611",
		"longitude": "15.73917",
		"country_code": "AO",
		"timezone": "Africa/Luanda",
		"names": {
			"ru": "Уамбо"
		},
		"fullNames": {
			"ru": "Ангола, Уамбо"
		}
	},
	{
		"geonameid": "3350246",
		"name": "Catumbela",
		"latitude": "-12.43002",
		"longitude": "13.54677",
		"country_code": "AO",
		"timezone": "Africa/Luanda",
		"names": {
			"ru": "Катумбела"
		},
		"fullNames": {
			"ru": "Ангола, Катумбела"
		}
	},
	{
		"geonameid": "3350372",
		"name": "Catabola",
		"latitude": "-12.15",
		"longitude": "17.28333",
		"country_code": "AO",
		"timezone": "Africa/Luanda",
		"names": {
			"ru": "Катабола"
		},
		"fullNames": {
			"ru": "Ангола, Катабола"
		}
	},
	{
		"geonameid": "3351014",
		"name": "Camacupa",
		"latitude": "-12.01667",
		"longitude": "17.48333",
		"country_code": "AO",
		"timezone": "Africa/Luanda",
		"names": {
			"ru": "Камакупа"
		},
		"fullNames": {
			"ru": "Ангола, Камакупа"
		}
	},
	{
		"geonameid": "3351500",
		"name": "Caála",
		"latitude": "-12.8525",
		"longitude": "15.56056",
		"country_code": "AO",
		"timezone": "Africa/Luanda",
		"names": {
			"ru": "Каале"
		},
		"fullNames": {
			"ru": "Ангола, Каале"
		}
	},
	{
		"geonameid": "3351663",
		"name": "Benguela",
		"latitude": "-12.57626",
		"longitude": "13.40547",
		"country_code": "AO",
		"timezone": "Africa/Luanda",
		"names": {
			"ru": "Бенгела"
		},
		"fullNames": {
			"ru": "Ангола, Бенгела"
		}
	},
	{
		"geonameid": "3427213",
		"name": "Zárate",
		"latitude": "-34.09814",
		"longitude": "-59.02858",
		"country_code": "AR",
		"timezone": "America/Argentina/Buenos_Aires",
		"names": {
			"ru": "Зарате"
		},
		"fullNames": {
			"ru": "Аргентина, Зарате"
		}
	},
	{
		"geonameid": "3427431",
		"name": "Villa Gesell",
		"latitude": "-37.26394",
		"longitude": "-56.97304",
		"country_code": "AR",
		"timezone": "America/Argentina/Buenos_Aires",
		"names": {
			"ru": "Вилья-Хесель"
		},
		"fullNames": {
			"ru": "Аргентина, Вилья-Хесель"
		}
	},
	{
		"geonameid": "3427761",
		"name": "Tigre",
		"latitude": "-34.42603",
		"longitude": "-58.57962",
		"country_code": "AR",
		"timezone": "America/Argentina/Buenos_Aires",
		"names": {
			"ru": "Тигре"
		},
		"fullNames": {
			"ru": "Аргентина, Тигре"
		}
	},
	{
		"geonameid": "3427833",
		"name": "Tandil",
		"latitude": "-37.32167",
		"longitude": "-59.13316",
		"country_code": "AR",
		"timezone": "America/Argentina/Buenos_Aires",
		"names": {
			"ru": "Тандиль"
		},
		"fullNames": {
			"ru": "Аргентина, Тандиль"
		}
	},
	{
		"geonameid": "3429576",
		"name": "Retiro",
		"latitude": "-34.58333",
		"longitude": "-58.38333",
		"country_code": "AR",
		"timezone": "America/Argentina/Buenos_Aires",
		"names": {
			"ru": "Ретиро"
		},
		"fullNames": {
			"ru": "Аргентина, Ретиро"
		}
	},
	{
		"geonameid": "3429577",
		"name": "Resistencia",
		"latitude": "-27.46056",
		"longitude": "-58.98389",
		"country_code": "AR",
		"timezone": "America/Argentina/Cordoba",
		"names": {
			"ru": "Ресистенсия"
		},
		"fullNames": {
			"ru": "Аргентина, Ресистенсия"
		}
	},
	{
		"geonameid": "3429594",
		"name": "Reconquista",
		"latitude": "-29.15",
		"longitude": "-59.65",
		"country_code": "AR",
		"timezone": "America/Argentina/Cordoba",
		"names": {
			"ru": "Реконкиста"
		},
		"fullNames": {
			"ru": "Аргентина, Реконкиста"
		}
	},
	{
		"geonameid": "3429652",
		"name": "Quilmes",
		"latitude": "-34.72904",
		"longitude": "-58.26374",
		"country_code": "AR",
		"timezone": "America/Argentina/Buenos_Aires",
		"names": {
			"ru": "Кильмес"
		},
		"fullNames": {
			"ru": "Аргентина, Кильмес"
		}
	},
	{
		"geonameid": "3429777",
		"name": "Puerto Iguazú",
		"latitude": "-25.59912",
		"longitude": "-54.57355",
		"country_code": "AR",
		"timezone": "America/Argentina/Cordoba",
		"names": {
			"ru": "Пуэрто-Игуасу"
		},
		"fullNames": {
			"ru": "Аргентина, Пуэрто-Игуасу"
		}
	},
	{
		"geonameid": "3429886",
		"name": "Posadas",
		"latitude": "-27.36708",
		"longitude": "-55.89608",
		"country_code": "AR",
		"timezone": "America/Argentina/Cordoba",
		"names": {
			"ru": "Посадас"
		},
		"fullNames": {
			"ru": "Аргентина, Посадас"
		}
	},
	{
		"geonameid": "3430340",
		"name": "Oberá",
		"latitude": "-27.48706",
		"longitude": "-55.11994",
		"country_code": "AR",
		"timezone": "America/Argentina/Cordoba",
		"names": {
			"ru": "Обера"
		},
		"fullNames": {
			"ru": "Аргентина, Обера"
		}
	},
	{
		"geonameid": "3430545",
		"name": "Morón",
		"latitude": "-34.6509",
		"longitude": "-58.61956",
		"country_code": "AR",
		"timezone": "America/Argentina/Buenos_Aires",
		"names": {
			"ru": "Морон"
		},
		"fullNames": {
			"ru": "Аргентина, Морон"
		}
	},
	{
		"geonameid": "3430697",
		"name": "Merlo",
		"latitude": "-34.66627",
		"longitude": "-58.72927",
		"country_code": "AR",
		"timezone": "America/Argentina/Buenos_Aires",
		"names": {
			"ru": "Мерло"
		},
		"fullNames": {
			"ru": "Аргентина, Мерло"
		}
	},
	{
		"geonameid": "3430709",
		"name": "Mercedes",
		"latitude": "-29.18416",
		"longitude": "-58.07519",
		"country_code": "AR",
		"timezone": "America/Argentina/Cordoba",
		"names": {
			"ru": "Мерседес"
		},
		"fullNames": {
			"ru": "Аргентина, Мерседес"
		}
	},
	{
		"geonameid": "3430863",
		"name": "Mar del Plata",
		"latitude": "-38.00042",
		"longitude": "-57.5562",
		"country_code": "AR",
		"timezone": "America/Argentina/Buenos_Aires",
		"names": {
			"ru": "Мар-дель-Плата"
		},
		"fullNames": {
			"ru": "Аргентина, Мар-дель-Плата"
		}
	},
	{
		"geonameid": "3430988",
		"name": "Luján",
		"latitude": "-34.57028",
		"longitude": "-59.105",
		"country_code": "AR",
		"timezone": "America/Argentina/Buenos_Aires",
		"names": {
			"ru": "Лухан"
		},
		"fullNames": {
			"ru": "Аргентина, Лухан"
		}
	},
	{
		"geonameid": "3432043",
		"name": "La Plata",
		"latitude": "-34.92145",
		"longitude": "-57.95453",
		"country_code": "AR",
		"timezone": "America/Argentina/Buenos_Aires",
		"names": {
			"ru": "Ла-Плата"
		},
		"fullNames": {
			"ru": "Аргентина, Ла-Плата"
		}
	},
	{
		"geonameid": "3433658",
		"name": "Gualeguaychú",
		"latitude": "-33.00937",
		"longitude": "-58.51722",
		"country_code": "AR",
		"timezone": "America/Argentina/Cordoba",
		"names": {
			"ru": "Гуалегуайчу"
		},
		"fullNames": {
			"ru": "Аргентина, Гуалегуайчу"
		}
	},
	{
		"geonameid": "3433715",
		"name": "Goya",
		"latitude": "-29.13995",
		"longitude": "-59.26343",
		"country_code": "AR",
		"timezone": "America/Argentina/Cordoba",
		"names": {
			"ru": "Гойя"
		},
		"fullNames": {
			"ru": "Аргентина, Гойя"
		}
	},
	{
		"geonameid": "3433899",
		"name": "Formosa",
		"latitude": "-26.18489",
		"longitude": "-58.17313",
		"country_code": "AR",
		"timezone": "America/Argentina/Cordoba",
		"names": {
			"ru": "Формоза"
		},
		"fullNames": {
			"ru": "Аргентина, Формоза"
		}
	},
	{
		"geonameid": "3435217",
		"name": "Corrientes",
		"latitude": "-27.46784",
		"longitude": "-58.8344",
		"country_code": "AR",
		"timezone": "America/Argentina/Cordoba",
		"names": {
			"ru": "Корриентес"
		},
		"fullNames": {
			"ru": "Аргентина, Корриентес"
		}
	},
	{
		"geonameid": "3435261",
		"name": "Concordia",
		"latitude": "-31.39296",
		"longitude": "-58.02089",
		"country_code": "AR",
		"timezone": "America/Argentina/Cordoba",
		"names": {
			"ru": "Конкордия"
		},
		"fullNames": {
			"ru": "Аргентина, Конкордия"
		}
	},
	{
		"geonameid": "3435264",
		"name": "Concepción del Uruguay",
		"latitude": "-32.48463",
		"longitude": "-58.23217",
		"country_code": "AR",
		"timezone": "America/Argentina/Cordoba",
		"names": {
			"ru": "Консепсьон-дель-Уругвай"
		},
		"fullNames": {
			"ru": "Аргентина, Консепсьон-дель-Уругвай"
		}
	},
	{
		"geonameid": "3435810",
		"name": "Campana",
		"latitude": "-34.16327",
		"longitude": "-58.95919",
		"country_code": "AR",
		"timezone": "America/Argentina/Buenos_Aires",
		"names": {
			"ru": "Кампана"
		},
		"fullNames": {
			"ru": "Аргентина, Кампана"
		}
	},
	{
		"geonameid": "3435910",
		"name": "Buenos Aires",
		"latitude": "-34.61315",
		"longitude": "-58.37723",
		"country_code": "AR",
		"timezone": "America/Argentina/Buenos_Aires",
		"names": {
			"ru": "Буэнос-Айрес"
		},
		"fullNames": {
			"ru": "Аргентина, Буэнос-Айрес"
		}
	},
	{
		"geonameid": "3436199",
		"name": "Azul",
		"latitude": "-36.77698",
		"longitude": "-59.85854",
		"country_code": "AR",
		"timezone": "America/Argentina/Buenos_Aires",
		"names": {
			"ru": "Азул"
		},
		"fullNames": {
			"ru": "Аргентина, Азул"
		}
	},
	{
		"geonameid": "3832132",
		"name": "Zapala",
		"latitude": "-38.89916",
		"longitude": "-70.05442",
		"country_code": "AR",
		"timezone": "America/Argentina/Salta",
		"names": {
			"ru": "Сапала"
		},
		"fullNames": {
			"ru": "Аргентина, Сапала"
		}
	},
	{
		"geonameid": "3832791",
		"name": "Villa Carlos Paz",
		"latitude": "-31.42414",
		"longitude": "-64.49778",
		"country_code": "AR",
		"timezone": "America/Argentina/Cordoba",
		"names": {
			"ru": "Карлос-Паз"
		},
		"fullNames": {
			"ru": "Аргентина, Карлос-Паз"
		}
	},
	{
		"geonameid": "3832899",
		"name": "Viedma",
		"latitude": "-40.81345",
		"longitude": "-62.99668",
		"country_code": "AR",
		"timezone": "America/Argentina/Salta",
		"names": {
			"ru": "Вьедма"
		},
		"fullNames": {
			"ru": "Аргентина, Вьедма"
		}
	},
	{
		"geonameid": "3832934",
		"name": "Victoria",
		"latitude": "-32.61841",
		"longitude": "-60.15478",
		"country_code": "AR",
		"timezone": "America/Argentina/Cordoba",
		"names": {
			"ru": "Виктория"
		},
		"fullNames": {
			"ru": "Аргентина, Виктория"
		}
	},
	{
		"geonameid": "3833062",
		"name": "Venado Tuerto",
		"latitude": "-33.74556",
		"longitude": "-61.96885",
		"country_code": "AR",
		"timezone": "America/Argentina/Cordoba",
		"names": {
			"ru": "Неукен"
		},
		"fullNames": {
			"ru": "Аргентина, Неукен"
		}
	},
	{
		"geonameid": "3833367",
		"name": "Ushuaia",
		"latitude": "-54.81084",
		"longitude": "-68.31591",
		"country_code": "AR",
		"timezone": "America/Argentina/Ushuaia",
		"names": {
			"ru": "Ушуая"
		},
		"fullNames": {
			"ru": "Аргентина, Ушуая"
		}
	},
	{
		"geonameid": "3834601",
		"name": "Tartagal",
		"latitude": "-22.51637",
		"longitude": "-63.80131",
		"country_code": "AR",
		"timezone": "America/Argentina/Salta",
		"names": {
			"ru": "Тартагал"
		},
		"fullNames": {
			"ru": "Аргентина, Тартагал"
		}
	},
	{
		"geonameid": "3835869",
		"name": "Santiago del Estero",
		"latitude": "-27.79511",
		"longitude": "-64.26149",
		"country_code": "AR",
		"timezone": "America/Argentina/Cordoba",
		"names": {
			"ru": "Сантьяго-дель-Эстеро"
		},
		"fullNames": {
			"ru": "Аргентина, Сантьяго-дель-Эстеро"
		}
	},
	{
		"geonameid": "3835994",
		"name": "Santa Rosa",
		"latitude": "-36.61667",
		"longitude": "-64.28333",
		"country_code": "AR",
		"timezone": "America/Argentina/Salta",
		"names": {
			"ru": "Санта-Роса"
		},
		"fullNames": {
			"ru": "Аргентина, Санта-Роса"
		}
	},
	{
		"geonameid": "3836277",
		"name": "Santa Fe",
		"latitude": "-31.64881",
		"longitude": "-60.70868",
		"country_code": "AR",
		"timezone": "America/Argentina/Cordoba",
		"names": {
			"ru": "Санта-Фе"
		},
		"fullNames": {
			"ru": "Аргентина, Санта-Фе"
		}
	},
	{
		"geonameid": "3836564",
		"name": "San Salvador de Jujuy",
		"latitude": "-24.19457",
		"longitude": "-65.29712",
		"country_code": "AR",
		"timezone": "America/Argentina/Jujuy",
		"names": {
			"ru": "Хухуй"
		},
		"fullNames": {
			"ru": "Аргентина, Хухуй"
		}
	},
	{
		"geonameid": "3836620",
		"name": "San Ramón de la Nueva Orán",
		"latitude": "-23.13705",
		"longitude": "-64.32426",
		"country_code": "AR",
		"timezone": "America/Argentina/Salta",
		"names": {
			"ru": "Сан-Рамон-де-ла-Нуэва-Оран"
		},
		"fullNames": {
			"ru": "Аргентина, Сан-Рамон-де-ла-Нуэва-Оран"
		}
	},
	{
		"geonameid": "3836669",
		"name": "San Rafael",
		"latitude": "-34.61772",
		"longitude": "-68.33007",
		"country_code": "AR",
		"timezone": "America/Argentina/Mendoza",
		"names": {
			"ru": "Сан-Рафаэль"
		},
		"fullNames": {
			"ru": "Аргентина, Сан-Рафаэль"
		}
	},
	{
		"geonameid": "3836873",
		"name": "San Miguel de Tucumán",
		"latitude": "-26.82414",
		"longitude": "-65.2226",
		"country_code": "AR",
		"timezone": "America/Argentina/Tucuman",
		"names": {
			"ru": "Сан-Мигель-де-Тукуман"
		},
		"fullNames": {
			"ru": "Аргентина, Сан-Мигель-де-Тукуман"
		}
	},
	{
		"geonameid": "3836951",
		"name": "San Martín de los Andes",
		"latitude": "-40.15789",
		"longitude": "-71.35337",
		"country_code": "AR",
		"timezone": "America/Argentina/Salta",
		"names": {
			"ru": "Сан-Мартин-Де-Лос-Андес"
		},
		"fullNames": {
			"ru": "Аргентина, Сан-Мартин-Де-Лос-Андес"
		}
	},
	{
		"geonameid": "3837056",
		"name": "San Luis",
		"latitude": "-33.29501",
		"longitude": "-66.33563",
		"country_code": "AR",
		"timezone": "America/Argentina/San_Luis",
		"names": {
			"ru": "Сан-Луис"
		},
		"fullNames": {
			"ru": "Аргентина, Сан-Луис"
		}
	},
	{
		"geonameid": "3837213",
		"name": "San Juan",
		"latitude": "-31.5375",
		"longitude": "-68.53639",
		"country_code": "AR",
		"timezone": "America/Argentina/San_Juan",
		"names": {
			"ru": "Сан-Хуан"
		},
		"fullNames": {
			"ru": "Аргентина, Сан-Хуан"
		}
	},
	{
		"geonameid": "3837702",
		"name": "San Fernando del Valle de Catamarca",
		"latitude": "-28.46957",
		"longitude": "-65.78524",
		"country_code": "AR",
		"timezone": "America/Argentina/Catamarca",
		"names": {
			"ru": "Сан-Фернандо-дель-Валье-де-Катамарка"
		},
		"fullNames": {
			"ru": "Аргентина, Сан-Фернандо-дель-Валье-де-Катамарка"
		}
	},
	{
		"geonameid": "3838233",
		"name": "Salta",
		"latitude": "-24.7859",
		"longitude": "-65.41166",
		"country_code": "AR",
		"timezone": "America/Argentina/Salta",
		"names": {
			"ru": "Сальта"
		},
		"fullNames": {
			"ru": "Аргентина, Сальта"
		}
	},
	{
		"geonameid": "3838583",
		"name": "Rosario",
		"latitude": "-32.94682",
		"longitude": "-60.63932",
		"country_code": "AR",
		"timezone": "America/Argentina/Cordoba",
		"names": {
			"ru": "Росарио"
		},
		"fullNames": {
			"ru": "Аргентина, Росарио"
		}
	},
	{
		"geonameid": "3838854",
		"name": "Río Grande",
		"latitude": "-53.78769",
		"longitude": "-67.70946",
		"country_code": "AR",
		"timezone": "America/Argentina/Ushuaia",
		"names": {
			"ru": "Рио-Гранде"
		},
		"fullNames": {
			"ru": "Аргентина, Рио-Гранде"
		}
	},
	{
		"geonameid": "3838859",
		"name": "Río Gallegos",
		"latitude": "-51.62261",
		"longitude": "-69.21813",
		"country_code": "AR",
		"timezone": "America/Argentina/Rio_Gallegos",
		"names": {
			"ru": "Рио-Гальегос"
		},
		"fullNames": {
			"ru": "Аргентина, Рио-Гальегос"
		}
	},
	{
		"geonameid": "3838874",
		"name": "Río Cuarto",
		"latitude": "-33.13067",
		"longitude": "-64.34992",
		"country_code": "AR",
		"timezone": "America/Argentina/Cordoba",
		"names": {
			"ru": "Рио-Куарто"
		},
		"fullNames": {
			"ru": "Аргентина, Рио-Куарто"
		}
	},
	{
		"geonameid": "3839307",
		"name": "Rawson",
		"latitude": "-43.30016",
		"longitude": "-65.10228",
		"country_code": "AR",
		"timezone": "America/Argentina/Catamarca",
		"names": {
			"ru": "Роусон"
		},
		"fullNames": {
			"ru": "Аргентина, Роусон"
		}
	},
	{
		"geonameid": "3839479",
		"name": "Rafaela",
		"latitude": "-31.25033",
		"longitude": "-61.4867",
		"country_code": "AR",
		"timezone": "America/Argentina/Cordoba",
		"names": {
			"ru": "Рафаэла"
		},
		"fullNames": {
			"ru": "Аргентина, Рафаэла"
		}
	},
	{
		"geonameid": "3839982",
		"name": "Punta Alta",
		"latitude": "-38.87588",
		"longitude": "-62.07359",
		"country_code": "AR",
		"timezone": "America/Argentina/Buenos_Aires",
		"names": {
			"ru": "Пунта-Альта"
		},
		"fullNames": {
			"ru": "Аргентина, Пунта-Альта"
		}
	},
	{
		"geonameid": "3840092",
		"name": "Puerto Madryn",
		"latitude": "-42.7692",
		"longitude": "-65.03851",
		"country_code": "AR",
		"timezone": "America/Argentina/Catamarca",
		"names": {
			"ru": "Пуэрто-Мадрин"
		},
		"fullNames": {
			"ru": "Аргентина, Пуэрто-Мадрин"
		}
	},
	{
		"geonameid": "3841490",
		"name": "Pergamino",
		"latitude": "-33.88995",
		"longitude": "-60.57357",
		"country_code": "AR",
		"timezone": "America/Argentina/Buenos_Aires",
		"names": {
			"ru": "Пергамино"
		},
		"fullNames": {
			"ru": "Аргентина, Пергамино"
		}
	},
	{
		"geonameid": "3841956",
		"name": "Paraná",
		"latitude": "-31.73271",
		"longitude": "-60.52897",
		"country_code": "AR",
		"timezone": "America/Argentina/Cordoba",
		"names": {
			"ru": "Парана"
		},
		"fullNames": {
			"ru": "Аргентина, Парана"
		}
	},
	{
		"geonameid": "3842670",
		"name": "Olavarría",
		"latitude": "-36.89272",
		"longitude": "-60.32254",
		"country_code": "AR",
		"timezone": "America/Argentina/Buenos_Aires",
		"names": {
			"ru": "Олаваррия"
		},
		"fullNames": {
			"ru": "Аргентина, Олаваррия"
		}
	},
	{
		"geonameid": "3842881",
		"name": "Nueve de Julio",
		"latitude": "-35.44437",
		"longitude": "-60.88313",
		"country_code": "AR",
		"timezone": "America/Argentina/Buenos_Aires",
		"names": {
			"ru": "Нев-де-Хулио"
		},
		"fullNames": {
			"ru": "Аргентина, Нев-де-Хулио"
		}
	},
	{
		"geonameid": "3843123",
		"name": "Neuquén",
		"latitude": "-38.95161",
		"longitude": "-68.0591",
		"country_code": "AR",
		"timezone": "America/Argentina/Salta",
		"names": {
			"ru": "Неукен"
		},
		"fullNames": {
			"ru": "Аргентина, Неукен"
		}
	},
	{
		"geonameid": "3844421",
		"name": "Mendoza",
		"latitude": "-32.89084",
		"longitude": "-68.82717",
		"country_code": "AR",
		"timezone": "America/Argentina/Mendoza",
		"names": {
			"ru": "Мендоса"
		},
		"fullNames": {
			"ru": "Аргентина, Мендоса"
		}
	},
	{
		"geonameid": "3848950",
		"name": "La Rioja",
		"latitude": "-29.41105",
		"longitude": "-66.85067",
		"country_code": "AR",
		"timezone": "America/Argentina/La_Rioja",
		"names": {
			"ru": "Ла-Риоха"
		},
		"fullNames": {
			"ru": "Аргентина, Ла-Риоха"
		}
	},
	{
		"geonameid": "3855065",
		"name": "General Roca",
		"latitude": "-39.03333",
		"longitude": "-67.58333",
		"country_code": "AR",
		"timezone": "America/Argentina/Salta",
		"names": {
			"ru": "Хенераль"
		},
		"fullNames": {
			"ru": "Аргентина, Хенераль"
		}
	},
	{
		"geonameid": "3855974",
		"name": "Esquel",
		"latitude": "-42.91147",
		"longitude": "-71.31947",
		"country_code": "AR",
		"timezone": "America/Argentina/Catamarca",
		"names": {
			"ru": "Эскель"
		},
		"fullNames": {
			"ru": "Аргентина, Эскель"
		}
	},
	{
		"geonameid": "3860164",
		"name": "Coronel Suárez",
		"latitude": "-37.45467",
		"longitude": "-61.93343",
		"country_code": "AR",
		"timezone": "America/Argentina/Buenos_Aires",
		"names": {
			"ru": "Коронель-Суарез"
		},
		"fullNames": {
			"ru": "Аргентина, Коронель-Суарез"
		}
	},
	{
		"geonameid": "3860259",
		"name": "Córdoba",
		"latitude": "-31.4135",
		"longitude": "-64.18105",
		"country_code": "AR",
		"timezone": "America/Argentina/Cordoba",
		"names": {
			"ru": "Кордова"
		},
		"fullNames": {
			"ru": "Аргентина, Кордова"
		}
	},
	{
		"geonameid": "3860443",
		"name": "Comodoro Rivadavia",
		"latitude": "-45.86413",
		"longitude": "-67.49656",
		"country_code": "AR",
		"timezone": "America/Argentina/Rio_Gallegos",
		"names": {
			"ru": "Комодоро-Ривадавия"
		},
		"fullNames": {
			"ru": "Аргентина, Комодоро-Ривадавия"
		}
	},
	{
		"geonameid": "3861056",
		"name": "Cipolletti",
		"latitude": "-38.93392",
		"longitude": "-67.99032",
		"country_code": "AR",
		"timezone": "America/Argentina/Salta",
		"names": {
			"ru": "Чиполлетти"
		},
		"fullNames": {
			"ru": "Аргентина, Чиполлетти"
		}
	},
	{
		"geonameid": "3861445",
		"name": "Chilecito",
		"latitude": "-29.16195",
		"longitude": "-67.4974",
		"country_code": "AR",
		"timezone": "America/Argentina/La_Rioja",
		"names": {
			"ru": "Чилесито"
		},
		"fullNames": {
			"ru": "Аргентина, Чилесито"
		}
	},
	{
		"geonameid": "3861953",
		"name": "Chacabuco",
		"latitude": "-34.64167",
		"longitude": "-60.47389",
		"country_code": "AR",
		"timezone": "America/Argentina/Buenos_Aires",
		"names": {
			"ru": "Чакабуко"
		},
		"fullNames": {
			"ru": "Аргентина, Чакабуко"
		}
	},
	{
		"geonameid": "3862981",
		"name": "Cañada de Gómez",
		"latitude": "-32.81636",
		"longitude": "-61.39493",
		"country_code": "AR",
		"timezone": "America/Argentina/Cordoba",
		"names": {
			"ru": "Канада-де-Гомес"
		},
		"fullNames": {
			"ru": "Аргентина, Канада-де-Гомес"
		}
	},
	{
		"geonameid": "3863379",
		"name": "Caleta Olivia",
		"latitude": "-46.43929",
		"longitude": "-67.52814",
		"country_code": "AR",
		"timezone": "America/Argentina/Rio_Gallegos",
		"names": {
			"ru": "Калета-Оливия"
		},
		"fullNames": {
			"ru": "Аргентина, Калета-Оливия"
		}
	},
	{
		"geonameid": "3865086",
		"name": "Bahía Blanca",
		"latitude": "-38.71959",
		"longitude": "-62.27243",
		"country_code": "AR",
		"timezone": "America/Argentina/Buenos_Aires",
		"names": {
			"ru": "Байя-Бланка"
		},
		"fullNames": {
			"ru": "Аргентина, Байя-Бланка"
		}
	},
	{
		"geonameid": "3866163",
		"name": "Alta Gracia",
		"latitude": "-31.65292",
		"longitude": "-64.42826",
		"country_code": "AR",
		"timezone": "America/Argentina/Cordoba",
		"names": {
			"ru": "Альта-Грация"
		},
		"fullNames": {
			"ru": "Аргентина, Альта-Грация"
		}
	},
	{
		"geonameid": "7647007",
		"name": "San Carlos de Bariloche",
		"latitude": "-41.14557",
		"longitude": "-71.30822",
		"country_code": "AR",
		"timezone": "America/Argentina/Salta",
		"names": {
			"ru": "Сан Карлос де Барилоче"
		},
		"fullNames": {
			"ru": "Аргентина, Сан Карлос де Барилоче"
		}
	},
	{
		"geonameid": "5881576",
		"name": "Pago Pago",
		"latitude": "-14.27806",
		"longitude": "-170.7025",
		"country_code": "AS",
		"timezone": "Pacific/Pago_Pago",
		"names": {
			"ru": "Пагопаго"
		},
		"fullNames": {
			"ru": "Американское Самоа, Пагопаго"
		}
	},
	{
		"geonameid": "2761353",
		"name": "Wiener Neustadt",
		"latitude": "47.80485",
		"longitude": "16.23196",
		"country_code": "AT",
		"timezone": "Europe/Vienna",
		"names": {
			"ru": "Винер-Нойштадт"
		},
		"fullNames": {
			"ru": "Австрия, Винер-Нойштадт"
		}
	},
	{
		"geonameid": "2761369",
		"name": "Vienna",
		"latitude": "48.20849",
		"longitude": "16.37208",
		"country_code": "AT",
		"timezone": "Europe/Vienna",
		"names": {
			"ru": "Вена"
		},
		"fullNames": {
			"ru": "Австрия, Вена"
		}
	},
	{
		"geonameid": "2761524",
		"name": "Wels",
		"latitude": "48.16667",
		"longitude": "14.03333",
		"country_code": "AT",
		"timezone": "Europe/Vienna",
		"names": {
			"ru": "Вельс"
		},
		"fullNames": {
			"ru": "Австрия, Вельс"
		}
	},
	{
		"geonameid": "2762372",
		"name": "Villach",
		"latitude": "46.61028",
		"longitude": "13.85583",
		"country_code": "AT",
		"timezone": "Europe/Vienna",
		"names": {
			"ru": "Филлах"
		},
		"fullNames": {
			"ru": "Австрия, Филлах"
		}
	},
	{
		"geonameid": "2763810",
		"name": "Telfs",
		"latitude": "47.30707",
		"longitude": "11.06817",
		"country_code": "AT",
		"timezone": "Europe/Vienna",
		"names": {
			"ru": "Тельфс"
		},
		"fullNames": {
			"ru": "Австрия, Тельфс"
		}
	},
	{
		"geonameid": "2764279",
		"name": "Stockerau",
		"latitude": "48.38333",
		"longitude": "16.21667",
		"country_code": "AT",
		"timezone": "Europe/Vienna",
		"names": {
			"ru": "Штоккерау"
		},
		"fullNames": {
			"ru": "Австрия, Штоккерау"
		}
	},
	{
		"geonameid": "2764359",
		"name": "Steyr",
		"latitude": "48.04274",
		"longitude": "14.42127",
		"country_code": "AT",
		"timezone": "Europe/Vienna",
		"names": {
			"ru": "Штайр"
		},
		"fullNames": {
			"ru": "Австрия, Штайр"
		}
	},
	{
		"geonameid": "2766429",
		"name": "Sankt Pölten",
		"latitude": "48.2",
		"longitude": "15.63333",
		"country_code": "AT",
		"timezone": "Europe/Vienna",
		"names": {
			"ru": "Санкт-Пёльтен"
		},
		"fullNames": {
			"ru": "Австрия, Санкт-Пёльтен"
		}
	},
	{
		"geonameid": "2766824",
		"name": "Salzburg",
		"latitude": "47.79941",
		"longitude": "13.04399",
		"country_code": "AT",
		"timezone": "Europe/Vienna",
		"names": {
			"ru": "Зальцбург"
		},
		"fullNames": {
			"ru": "Австрия, Зальцбург"
		}
	},
	{
		"geonameid": "2769110",
		"name": "Perchtoldsdorf",
		"latitude": "48.11935",
		"longitude": "16.26607",
		"country_code": "AT",
		"timezone": "Europe/Vienna",
		"names": {
			"ru": "Перхтольдсдорф"
		},
		"fullNames": {
			"ru": "Австрия, Перхтольдсдорф"
		}
	},
	{
		"geonameid": "2771335",
		"name": "Mödling",
		"latitude": "48.08605",
		"longitude": "16.28921",
		"country_code": "AT",
		"timezone": "Europe/Vienna",
		"names": {
			"ru": "Мёдлинг"
		},
		"fullNames": {
			"ru": "Австрия, Мёдлинг"
		}
	},
	{
		"geonameid": "2772173",
		"name": "Lustenau",
		"latitude": "47.42642",
		"longitude": "9.65851",
		"country_code": "AT",
		"timezone": "Europe/Vienna",
		"names": {
			"ru": "Лустенау"
		},
		"fullNames": {
			"ru": "Австрия, Лустенау"
		}
	},
	{
		"geonameid": "2772400",
		"name": "Linz",
		"latitude": "48.30639",
		"longitude": "14.28611",
		"country_code": "AT",
		"timezone": "Europe/Vienna",
		"names": {
			"ru": "Линц"
		},
		"fullNames": {
			"ru": "Австрия, Линц"
		}
	},
	{
		"geonameid": "2773913",
		"name": "Klosterneuburg",
		"latitude": "48.30521",
		"longitude": "16.32522",
		"country_code": "AT",
		"timezone": "Europe/Vienna",
		"names": {
			"ru": "Клостернойбург"
		},
		"fullNames": {
			"ru": "Австрия, Клостернойбург"
		}
	},
	{
		"geonameid": "2774326",
		"name": "Klagenfurt am Wörthersee",
		"latitude": "46.62472",
		"longitude": "14.30528",
		"country_code": "AT",
		"timezone": "Europe/Vienna",
		"names": {
			"ru": "Клагенфурт"
		},
		"fullNames": {
			"ru": "Австрия, Клагенфурт"
		}
	},
	{
		"geonameid": "2775220",
		"name": "Innsbruck",
		"latitude": "47.26266",
		"longitude": "11.39454",
		"country_code": "AT",
		"timezone": "Europe/Vienna",
		"names": {
			"ru": "Инсбрук"
		},
		"fullNames": {
			"ru": "Австрия, Инсбрук"
		}
	},
	{
		"geonameid": "2775742",
		"name": "Hohenems",
		"latitude": "47.36667",
		"longitude": "9.68306",
		"country_code": "AT",
		"timezone": "Europe/Vienna",
		"names": {
			"ru": "Хоэнемс"
		},
		"fullNames": {
			"ru": "Австрия, Хоэнемс"
		}
	},
	{
		"geonameid": "2778067",
		"name": "Graz",
		"latitude": "47.06667",
		"longitude": "15.45",
		"country_code": "AT",
		"timezone": "Europe/Vienna",
		"names": {
			"ru": "Грац"
		},
		"fullNames": {
			"ru": "Австрия, Грац"
		}
	},
	{
		"geonameid": "2779674",
		"name": "Feldkirch",
		"latitude": "47.23306",
		"longitude": "9.6",
		"country_code": "AT",
		"timezone": "Europe/Vienna",
		"names": {
			"ru": "Фельдкирх"
		},
		"fullNames": {
			"ru": "Австрия, Фельдкирх"
		}
	},
	{
		"geonameid": "2780741",
		"name": "Dornbirn",
		"latitude": "47.41427",
		"longitude": "9.74195",
		"country_code": "AT",
		"timezone": "Europe/Vienna",
		"names": {
			"ru": "Дорнбирн"
		},
		"fullNames": {
			"ru": "Австрия, Дорнбирн"
		}
	},
	{
		"geonameid": "2781503",
		"name": "Bregenz",
		"latitude": "47.50311",
		"longitude": "9.7471",
		"country_code": "AT",
		"timezone": "Europe/Vienna",
		"names": {
			"ru": "Брегенц"
		},
		"fullNames": {
			"ru": "Австрия, Брегенц"
		}
	},
	{
		"geonameid": "2782067",
		"name": "Baden",
		"latitude": "48.00543",
		"longitude": "16.23264",
		"country_code": "AT",
		"timezone": "Europe/Vienna",
		"names": {
			"ru": "Баден"
		},
		"fullNames": {
			"ru": "Австрия, Баден"
		}
	},
	{
		"geonameid": "2782555",
		"name": "Amstetten",
		"latitude": "48.1229",
		"longitude": "14.87206",
		"country_code": "AT",
		"timezone": "Europe/Vienna",
		"names": {
			"ru": "Амштеттен"
		},
		"fullNames": {
			"ru": "Австрия, Амштеттен"
		}
	},
	{
		"geonameid": "2063523",
		"name": "Perth",
		"latitude": "-31.95224",
		"longitude": "115.8614",
		"country_code": "AU",
		"timezone": "Australia/Perth",
		"names": {
			"ru": "Перт"
		},
		"fullNames": {
			"ru": "Австралия, Перт"
		}
	},
	{
		"geonameid": "2065594",
		"name": "Mount Isa",
		"latitude": "-20.72523",
		"longitude": "139.49727",
		"country_code": "AU",
		"timezone": "Australia/Brisbane",
		"names": {
			"ru": "Маунт-Айза"
		},
		"fullNames": {
			"ru": "Австралия, Маунт-Айза"
		}
	},
	{
		"geonameid": "2067119",
		"name": "Mandurah",
		"latitude": "-32.5269",
		"longitude": "115.7217",
		"country_code": "AU",
		"timezone": "Australia/Perth",
		"names": {
			"ru": "Мандъюра"
		},
		"fullNames": {
			"ru": "Австралия, Мандъюра"
		}
	},
	{
		"geonameid": "2070998",
		"name": "Geraldton",
		"latitude": "-28.77897",
		"longitude": "114.61459",
		"country_code": "AU",
		"timezone": "Australia/Perth",
		"names": {
			"ru": "Джералдтон"
		},
		"fullNames": {
			"ru": "Австралия, Джералдтон"
		}
	},
	{
		"geonameid": "2071059",
		"name": "Gawler",
		"latitude": "-34.60251",
		"longitude": "138.74902",
		"country_code": "AU",
		"timezone": "Australia/Adelaide",
		"names": {
			"ru": "Голер"
		},
		"fullNames": {
			"ru": "Австралия, Голер"
		}
	},
	{
		"geonameid": "2073124",
		"name": "Darwin",
		"latitude": "-12.46113",
		"longitude": "130.84185",
		"country_code": "AU",
		"timezone": "Australia/Darwin",
		"names": {
			"ru": "Дарвин"
		},
		"fullNames": {
			"ru": "Австралия, Дарвин"
		}
	},
	{
		"geonameid": "2075432",
		"name": "Bunbury",
		"latitude": "-33.32711",
		"longitude": "115.64137",
		"country_code": "AU",
		"timezone": "Australia/Perth",
		"names": {
			"ru": "Банбери"
		},
		"fullNames": {
			"ru": "Австралия, Банбери"
		}
	},
	{
		"geonameid": "2077895",
		"name": "Alice Springs",
		"latitude": "-23.69748",
		"longitude": "133.88362",
		"country_code": "AU",
		"timezone": "Australia/Darwin",
		"names": {
			"ru": "Алис-Спрингс"
		},
		"fullNames": {
			"ru": "Австралия, Алис-Спрингс"
		}
	},
	{
		"geonameid": "2077963",
		"name": "Albany",
		"latitude": "-35.02692",
		"longitude": "117.88369",
		"country_code": "AU",
		"timezone": "Australia/Perth",
		"names": {
			"ru": "Олбани"
		},
		"fullNames": {
			"ru": "Австралия, Олбани"
		}
	},
	{
		"geonameid": "2078025",
		"name": "Adelaide",
		"latitude": "-34.92866",
		"longitude": "138.59863",
		"country_code": "AU",
		"timezone": "Australia/Adelaide",
		"names": {
			"ru": "Аделаида"
		},
		"fullNames": {
			"ru": "Австралия, Аделаида"
		}
	},
	{
		"geonameid": "2143285",
		"name": "Wodonga",
		"latitude": "-36.12179",
		"longitude": "146.88809",
		"country_code": "AU",
		"timezone": "Australia/Melbourne",
		"names": {
			"ru": "Уодонга"
		},
		"fullNames": {
			"ru": "Австралия, Уодонга"
		}
	},
	{
		"geonameid": "2144528",
		"name": "Warrnambool",
		"latitude": "-38.38176",
		"longitude": "142.48799",
		"country_code": "AU",
		"timezone": "Australia/Melbourne",
		"names": {
			"ru": "Уорнамбул"
		},
		"fullNames": {
			"ru": "Австралия, Уорнамбул"
		}
	},
	{
		"geonameid": "2144604",
		"name": "Warragul",
		"latitude": "-38.15912",
		"longitude": "145.93118",
		"country_code": "AU",
		"timezone": "Australia/Melbourne",
		"names": {
			"ru": "Уоррагул"
		},
		"fullNames": {
			"ru": "Австралия, Уоррагул"
		}
	},
	{
		"geonameid": "2144764",
		"name": "Wangaratta",
		"latitude": "-36.35846",
		"longitude": "146.32056",
		"country_code": "AU",
		"timezone": "Australia/Melbourne",
		"names": {
			"ru": "Уангаратта"
		},
		"fullNames": {
			"ru": "Австралия, Уангаратта"
		}
	},
	{
		"geonameid": "2146108",
		"name": "Traralgon",
		"latitude": "-38.19528",
		"longitude": "146.5415",
		"country_code": "AU",
		"timezone": "Australia/Melbourne",
		"names": {
			"ru": "Траралгон"
		},
		"fullNames": {
			"ru": "Австралия, Траралгон"
		}
	},
	{
		"geonameid": "2146142",
		"name": "Townsville",
		"latitude": "-19.26639",
		"longitude": "146.80569",
		"country_code": "AU",
		"timezone": "Australia/Brisbane",
		"names": {
			"ru": "Таунсвилл"
		},
		"fullNames": {
			"ru": "Австралия, Таунсвилл"
		}
	},
	{
		"geonameid": "2146268",
		"name": "Toowoomba",
		"latitude": "-27.56056",
		"longitude": "151.95386",
		"country_code": "AU",
		"timezone": "Australia/Brisbane",
		"names": {
			"ru": "Тувумба"
		},
		"fullNames": {
			"ru": "Австралия, Тувумба"
		}
	},
	{
		"geonameid": "2147381",
		"name": "Taree",
		"latitude": "-31.91099",
		"longitude": "152.45387",
		"country_code": "AU",
		"timezone": "Australia/Sydney",
		"names": {
			"ru": "Тари"
		},
		"fullNames": {
			"ru": "Австралия, Тари"
		}
	},
	{
		"geonameid": "2147497",
		"name": "Tamworth",
		"latitude": "-31.09048",
		"longitude": "150.92905",
		"country_code": "AU",
		"timezone": "Australia/Sydney",
		"names": {
			"ru": "Тамуорт"
		},
		"fullNames": {
			"ru": "Австралия, Тамуорт"
		}
	},
	{
		"geonameid": "2147714",
		"name": "Sydney",
		"latitude": "-33.86785",
		"longitude": "151.20732",
		"country_code": "AU",
		"timezone": "Australia/Sydney",
		"names": {
			"ru": "Сидней"
		},
		"fullNames": {
			"ru": "Австралия, Сидней"
		}
	},
	{
		"geonameid": "2147849",
		"name": "Surfers Paradise",
		"latitude": "-28.00274",
		"longitude": "153.42999",
		"country_code": "AU",
		"timezone": "Australia/Brisbane",
		"names": {
			"ru": "Сёрферс Парадайз"
		},
		"fullNames": {
			"ru": "Австралия, Сёрферс Парадайз"
		}
	},
	{
		"geonameid": "2147914",
		"name": "Sunbury",
		"latitude": "-37.57742",
		"longitude": "144.72607",
		"country_code": "AU",
		"timezone": "Australia/Melbourne",
		"names": {
			"ru": "Санбери"
		},
		"fullNames": {
			"ru": "Австралия, Санбери"
		}
	},
	{
		"geonameid": "2149645",
		"name": "Shepparton",
		"latitude": "-36.38047",
		"longitude": "145.39867",
		"country_code": "AU",
		"timezone": "Australia/Melbourne",
		"names": {
			"ru": "Шеппартон"
		},
		"fullNames": {
			"ru": "Австралия, Шеппартон"
		}
	},
	{
		"geonameid": "2151437",
		"name": "Rockhampton",
		"latitude": "-23.38032",
		"longitude": "150.50595",
		"country_code": "AU",
		"timezone": "Australia/Brisbane",
		"names": {
			"ru": "Рокхемптон"
		},
		"fullNames": {
			"ru": "Австралия, Рокхемптон"
		}
	},
	{
		"geonameid": "2152659",
		"name": "Port Macquarie",
		"latitude": "-31.43084",
		"longitude": "152.90894",
		"country_code": "AU",
		"timezone": "Australia/Sydney",
		"names": {
			"ru": "Порт Маккуори"
		},
		"fullNames": {
			"ru": "Австралия, Порт Маккуори"
		}
	},
	{
		"geonameid": "2154219",
		"name": "Orange",
		"latitude": "-33.28397",
		"longitude": "149.10018",
		"country_code": "AU",
		"timezone": "Australia/Sydney",
		"names": {
			"ru": "Орандж"
		},
		"fullNames": {
			"ru": "Австралия, Орандж"
		}
	},
	{
		"geonameid": "2155472",
		"name": "Newcastle",
		"latitude": "-32.92953",
		"longitude": "151.7801",
		"country_code": "AU",
		"timezone": "Australia/Sydney",
		"names": {
			"ru": "Ньюкасл"
		},
		"fullNames": {
			"ru": "Австралия, Ньюкасл"
		}
	},
	{
		"geonameid": "2156643",
		"name": "Mount Gambier",
		"latitude": "-37.8318",
		"longitude": "140.77919",
		"country_code": "AU",
		"timezone": "Australia/Adelaide",
		"names": {
			"ru": "Маунт-Гамбиер"
		},
		"fullNames": {
			"ru": "Австралия, Маунт-Гамбиер"
		}
	},
	{
		"geonameid": "2156813",
		"name": "Mosman",
		"latitude": "-33.83902",
		"longitude": "151.23956",
		"country_code": "AU",
		"timezone": "Australia/Sydney",
		"names": {
			"ru": "Мосман"
		},
		"fullNames": {
			"ru": "Австралия, Мосман"
		}
	},
	{
		"geonameid": "2156878",
		"name": "Mornington",
		"latitude": "-38.21792",
		"longitude": "145.03876",
		"country_code": "AU",
		"timezone": "Australia/Melbourne",
		"names": {
			"ru": "Морнингтон"
		},
		"fullNames": {
			"ru": "Австралия, Морнингтон"
		}
	},
	{
		"geonameid": "2157698",
		"name": "Mildura",
		"latitude": "-34.18551",
		"longitude": "142.16251",
		"country_code": "AU",
		"timezone": "Australia/Melbourne",
		"names": {
			"ru": "Милдьюра"
		},
		"fullNames": {
			"ru": "Австралия, Милдьюра"
		}
	},
	{
		"geonameid": "2158177",
		"name": "Melbourne",
		"latitude": "-37.814",
		"longitude": "144.96332",
		"country_code": "AU",
		"timezone": "Australia/Melbourne",
		"names": {
			"ru": "Мельбурн"
		},
		"fullNames": {
			"ru": "Австралия, Мельбурн"
		}
	},
	{
		"geonameid": "2158562",
		"name": "Maryborough",
		"latitude": "-25.54073",
		"longitude": "152.70493",
		"country_code": "AU",
		"timezone": "Australia/Brisbane",
		"names": {
			"ru": "Мэриборо"
		},
		"fullNames": {
			"ru": "Австралия, Мэриборо"
		}
	},
	{
		"geonameid": "2158867",
		"name": "Manly",
		"latitude": "-33.79798",
		"longitude": "151.28826",
		"country_code": "AU",
		"timezone": "Australia/Sydney",
		"names": {
			"ru": "Манли"
		},
		"fullNames": {
			"ru": "Австралия, Манли"
		}
	},
	{
		"geonameid": "2159045",
		"name": "Maitland",
		"latitude": "-32.73308",
		"longitude": "151.5574",
		"country_code": "AU",
		"timezone": "Australia/Sydney",
		"names": {
			"ru": "Мейтленд"
		},
		"fullNames": {
			"ru": "Австралия, Мейтленд"
		}
	},
	{
		"geonameid": "2159220",
		"name": "Mackay",
		"latitude": "-21.15345",
		"longitude": "149.16554",
		"country_code": "AU",
		"timezone": "Australia/Brisbane",
		"names": {
			"ru": "Макей"
		},
		"fullNames": {
			"ru": "Австралия, Макей"
		}
	},
	{
		"geonameid": "2160258",
		"name": "Lidcombe",
		"latitude": "-33.86436",
		"longitude": "151.0397",
		"country_code": "AU",
		"timezone": "Australia/Sydney",
		"names": {
			"ru": "Лидкомб"
		},
		"fullNames": {
			"ru": "Австралия, Лидкомб"
		}
	},
	{
		"geonameid": "2160517",
		"name": "Launceston",
		"latitude": "-41.43876",
		"longitude": "147.13467",
		"country_code": "AU",
		"timezone": "Australia/Hobart",
		"names": {
			"ru": "Лонсестон"
		},
		"fullNames": {
			"ru": "Австралия, Лонсестон"
		}
	},
	{
		"geonameid": "2161608",
		"name": "Kensington",
		"latitude": "-33.92019",
		"longitude": "151.22241",
		"country_code": "AU",
		"timezone": "Australia/Sydney",
		"names": {
			"ru": "Кенсингтон"
		},
		"fullNames": {
			"ru": "Австралия, Кенсингтон"
		}
	},
	{
		"geonameid": "2163355",
		"name": "Hobart",
		"latitude": "-42.87936",
		"longitude": "147.32941",
		"country_code": "AU",
		"timezone": "Australia/Hobart",
		"names": {
			"ru": "Хобарт"
		},
		"fullNames": {
			"ru": "Австралия, Хобарт"
		}
	},
	{
		"geonameid": "2164422",
		"name": "Griffith",
		"latitude": "-34.28853",
		"longitude": "146.05093",
		"country_code": "AU",
		"timezone": "Australia/Sydney",
		"names": {
			"ru": "Гриффит"
		},
		"fullNames": {
			"ru": "Австралия, Гриффит"
		}
	},
	{
		"geonameid": "2164837",
		"name": "Goulburn",
		"latitude": "-34.75155",
		"longitude": "149.72086",
		"country_code": "AU",
		"timezone": "Australia/Sydney",
		"names": {
			"ru": "Гулберн"
		},
		"fullNames": {
			"ru": "Австралия, Гулберн"
		}
	},
	{
		"geonameid": "2165087",
		"name": "Gold Coast",
		"latitude": "-28.00029",
		"longitude": "153.43088",
		"country_code": "AU",
		"timezone": "Australia/Brisbane",
		"names": {
			"ru": "Голд Коуст"
		},
		"fullNames": {
			"ru": "Австралия, Голд Коуст"
		}
	},
	{
		"geonameid": "2165478",
		"name": "Gladstone",
		"latitude": "-23.84852",
		"longitude": "151.25775",
		"country_code": "AU",
		"timezone": "Australia/Brisbane",
		"names": {
			"ru": "Глэдстон"
		},
		"fullNames": {
			"ru": "Австралия, Глэдстон"
		}
	},
	{
		"geonameid": "2165798",
		"name": "Geelong",
		"latitude": "-38.14711",
		"longitude": "144.36069",
		"country_code": "AU",
		"timezone": "Australia/Melbourne",
		"names": {
			"ru": "Джилонг"
		},
		"fullNames": {
			"ru": "Австралия, Джилонг"
		}
	},
	{
		"geonameid": "2166143",
		"name": "Frankston East",
		"latitude": "-38.13333",
		"longitude": "145.13333",
		"country_code": "AU",
		"timezone": "Australia/Melbourne",
		"names": {
			"ru": "Френкстон"
		},
		"fullNames": {
			"ru": "Австралия, Френкстон"
		}
	},
	{
		"geonameid": "2167312",
		"name": "Engadine",
		"latitude": "-34.06564",
		"longitude": "151.01266",
		"country_code": "AU",
		"timezone": "Australia/Sydney",
		"names": {
			"ru": "Энгадин"
		},
		"fullNames": {
			"ru": "Австралия, Энгадин"
		}
	},
	{
		"geonameid": "2168305",
		"name": "Dubbo",
		"latitude": "-32.24295",
		"longitude": "148.60484",
		"country_code": "AU",
		"timezone": "Australia/Sydney",
		"names": {
			"ru": "Даббо"
		},
		"fullNames": {
			"ru": "Австралия, Даббо"
		}
	},
	{
		"geonameid": "2171085",
		"name": "Coffs Harbour",
		"latitude": "-30.29626",
		"longitude": "153.11351",
		"country_code": "AU",
		"timezone": "Australia/Sydney",
		"names": {
			"ru": "Кофс-Харбор"
		},
		"fullNames": {
			"ru": "Австралия, Кофс-Харбор"
		}
	},
	{
		"geonameid": "2171507",
		"name": "Wollongong",
		"latitude": "-34.424",
		"longitude": "150.89345",
		"country_code": "AU",
		"timezone": "Australia/Sydney",
		"names": {
			"ru": "Вуллонгонг"
		},
		"fullNames": {
			"ru": "Австралия, Вуллонгонг"
		}
	},
	{
		"geonameid": "2171845",
		"name": "Cessnock",
		"latitude": "-32.83211",
		"longitude": "151.35623",
		"country_code": "AU",
		"timezone": "Australia/Sydney",
		"names": {
			"ru": "Сеснок"
		},
		"fullNames": {
			"ru": "Австралия, Сеснок"
		}
	},
	{
		"geonameid": "2172517",
		"name": "Canberra",
		"latitude": "-35.28346",
		"longitude": "149.12807",
		"country_code": "AU",
		"timezone": "Australia/Sydney",
		"names": {
			"ru": "Канберра"
		},
		"fullNames": {
			"ru": "Австралия, Канберра"
		}
	},
	{
		"geonameid": "2172797",
		"name": "Cairns",
		"latitude": "-16.92366",
		"longitude": "145.76613",
		"country_code": "AU",
		"timezone": "Australia/Brisbane",
		"names": {
			"ru": "Кернс"
		},
		"fullNames": {
			"ru": "Австралия, Кернс"
		}
	},
	{
		"geonameid": "2173125",
		"name": "Burnie",
		"latitude": "-41.05584",
		"longitude": "145.90375",
		"country_code": "AU",
		"timezone": "Australia/Hobart",
		"names": {
			"ru": "Берни"
		},
		"fullNames": {
			"ru": "Австралия, Берни"
		}
	},
	{
		"geonameid": "2173323",
		"name": "Bundaberg",
		"latitude": "-24.86621",
		"longitude": "152.3479",
		"country_code": "AU",
		"timezone": "Australia/Brisbane",
		"names": {
			"ru": "Бандаберг"
		},
		"fullNames": {
			"ru": "Австралия, Бандаберг"
		}
	},
	{
		"geonameid": "2173911",
		"name": "Broken Hill",
		"latitude": "-31.9652",
		"longitude": "141.4512",
		"country_code": "AU",
		"timezone": "Australia/Broken_Hill",
		"names": {
			"ru": "Брокен-Хилл"
		},
		"fullNames": {
			"ru": "Австралия, Брокен-Хилл"
		}
	},
	{
		"geonameid": "2174003",
		"name": "Brisbane",
		"latitude": "-27.46794",
		"longitude": "153.02809",
		"country_code": "AU",
		"timezone": "Australia/Brisbane",
		"names": {
			"ru": "Брисбен"
		},
		"fullNames": {
			"ru": "Австралия, Брисбен"
		}
	},
	{
		"geonameid": "2176187",
		"name": "Bendigo",
		"latitude": "-36.75818",
		"longitude": "144.28024",
		"country_code": "AU",
		"timezone": "Australia/Melbourne",
		"names": {
			"ru": "Бендиго"
		},
		"fullNames": {
			"ru": "Австралия, Бендиго"
		}
	},
	{
		"geonameid": "2176632",
		"name": "Bathurst",
		"latitude": "-33.41665",
		"longitude": "149.5806",
		"country_code": "AU",
		"timezone": "Australia/Sydney",
		"names": {
			"ru": "Бэтхерст"
		},
		"fullNames": {
			"ru": "Австралия, Бэтхерст"
		}
	},
	{
		"geonameid": "2177091",
		"name": "Ballarat",
		"latitude": "-37.56622",
		"longitude": "143.84957",
		"country_code": "AU",
		"timezone": "Australia/Melbourne",
		"names": {
			"ru": "Балларат"
		},
		"fullNames": {
			"ru": "Австралия, Балларат"
		}
	},
	{
		"geonameid": "2177233",
		"name": "Bairnsdale",
		"latitude": "-37.82289",
		"longitude": "147.61041",
		"country_code": "AU",
		"timezone": "Australia/Melbourne",
		"names": {
			"ru": "Бэрнсдейл"
		},
		"fullNames": {
			"ru": "Австралия, Бэрнсдейл"
		}
	},
	{
		"geonameid": "2177671",
		"name": "Armidale",
		"latitude": "-30.50123",
		"longitude": "151.66553",
		"country_code": "AU",
		"timezone": "Australia/Sydney",
		"names": {
			"ru": "Армидейл"
		},
		"fullNames": {
			"ru": "Австралия, Армидейл"
		}
	},
	{
		"geonameid": "6301965",
		"name": "Palmerston",
		"latitude": "-12.48602",
		"longitude": "130.9833",
		"country_code": "AU",
		"timezone": "Australia/Darwin",
		"names": {
			"ru": "Палмерстон"
		},
		"fullNames": {
			"ru": "Австралия, Палмерстон"
		}
	},
	{
		"geonameid": "6354957",
		"name": "Hervey Bay",
		"latitude": "-25.28762",
		"longitude": "152.76936",
		"country_code": "AU",
		"timezone": "Australia/Brisbane",
		"names": {
			"ru": "Харви-Бей"
		},
		"fullNames": {
			"ru": "Австралия, Харви-Бей"
		}
	},
	{
		"geonameid": "3577154",
		"name": "Oranjestad",
		"latitude": "12.52398",
		"longitude": "-70.02703",
		"country_code": "AW",
		"timezone": "America/Aruba",
		"names": {
			"ru": "Ораньестад"
		},
		"fullNames": {
			"ru": "Аруба, Ораньестад"
		}
	},
	{
		"geonameid": "3041732",
		"name": "Mariehamn",
		"latitude": "60.09726",
		"longitude": "19.93481",
		"country_code": "AX",
		"timezone": "Europe/Mariehamn",
		"names": {
			"ru": "Мариехамн"
		},
		"fullNames": {
			"ru": "Аландские острова, Мариехамн"
		}
	},
	{
		"geonameid": "146970",
		"name": "Xankandi",
		"latitude": "39.8177",
		"longitude": "46.7528",
		"country_code": "AZ",
		"timezone": "Asia/Baku",
		"names": {
			"ru": "Степанакерт"
		},
		"fullNames": {
			"ru": "Азербайджан, Степанакерт"
		}
	},
	{
		"geonameid": "147059",
		"name": "Əhmədbəyli",
		"latitude": "39.88074",
		"longitude": "48.39158",
		"country_code": "AZ",
		"timezone": "Asia/Baku",
		"names": {
			"ru": "Tel’mankend"
		},
		"fullNames": {
			"ru": "Азербайджан, Tel’mankend"
		}
	},
	{
		"geonameid": "147105",
		"name": "Şuşa",
		"latitude": "39.76006",
		"longitude": "46.74989",
		"country_code": "AZ",
		"timezone": "Asia/Baku",
		"names": {
			"ru": "Шуша"
		},
		"fullNames": {
			"ru": "Азербайджан, Шуша"
		}
	},
	{
		"geonameid": "147271",
		"name": "Salyan",
		"latitude": "39.59621",
		"longitude": "48.98479",
		"country_code": "AZ",
		"timezone": "Asia/Baku",
		"names": {
			"ru": "Сальян"
		},
		"fullNames": {
			"ru": "Азербайджан, Сальян"
		}
	},
	{
		"geonameid": "147288",
		"name": "Saatlı",
		"latitude": "39.93214",
		"longitude": "48.36892",
		"country_code": "AZ",
		"timezone": "Asia/Baku",
		"names": {
			"ru": "Саатлы"
		},
		"fullNames": {
			"ru": "Азербайджан, Саатлы"
		}
	},
	{
		"geonameid": "147425",
		"name": "Neftçala",
		"latitude": "39.3768",
		"longitude": "49.247",
		"country_code": "AZ",
		"timezone": "Asia/Baku",
		"names": {
			"ru": "Нефтечала"
		},
		"fullNames": {
			"ru": "Азербайджан, Нефтечала"
		}
	},
	{
		"geonameid": "147429",
		"name": "Nakhchivan",
		"latitude": "39.20889",
		"longitude": "45.41222",
		"country_code": "AZ",
		"timezone": "Asia/Baku",
		"names": {
			"ru": "Nakhichevan’"
		},
		"fullNames": {
			"ru": "Азербайджан, Nakhichevan’"
		}
	},
	{
		"geonameid": "147622",
		"name": "Lankaran",
		"latitude": "38.75428",
		"longitude": "48.85062",
		"country_code": "AZ",
		"timezone": "Asia/Baku",
		"names": {
			"ru": "Ленкорань"
		},
		"fullNames": {
			"ru": "Азербайджан, Ленкорань"
		}
	},
	{
		"geonameid": "147982",
		"name": "Imishli",
		"latitude": "39.87095",
		"longitude": "48.05995",
		"country_code": "AZ",
		"timezone": "Asia/Baku",
		"names": {
			"ru": "Имишли"
		},
		"fullNames": {
			"ru": "Азербайджан, Имишли"
		}
	},
	{
		"geonameid": "148106",
		"name": "Fizuli",
		"latitude": "39.60094",
		"longitude": "47.14529",
		"country_code": "AZ",
		"timezone": "Asia/Baku",
		"names": {
			"ru": "Физули"
		},
		"fullNames": {
			"ru": "Азербайджан, Физули"
		}
	},
	{
		"geonameid": "148290",
		"name": "Jalilabad",
		"latitude": "39.20963",
		"longitude": "48.49186",
		"country_code": "AZ",
		"timezone": "Asia/Baku",
		"names": {
			"ru": "Джалильабад"
		},
		"fullNames": {
			"ru": "Азербайджан, Джалильабад"
		}
	},
	{
		"geonameid": "148445",
		"name": "Astara",
		"latitude": "38.45598",
		"longitude": "48.87498",
		"country_code": "AZ",
		"timezone": "Asia/Baku",
		"names": {
			"ru": "Астара"
		},
		"fullNames": {
			"ru": "Азербайджан, Астара"
		}
	},
	{
		"geonameid": "148565",
		"name": "Şirvan",
		"latitude": "39.93778",
		"longitude": "48.929",
		"country_code": "AZ",
		"timezone": "Asia/Baku",
		"names": {
			"ru": "Али-Байрамлы"
		},
		"fullNames": {
			"ru": "Азербайджан, Али-Байрамлы"
		}
	},
	{
		"geonameid": "148619",
		"name": "Ağdam",
		"latitude": "39.99096",
		"longitude": "46.92736",
		"country_code": "AZ",
		"timezone": "Asia/Baku",
		"names": {
			"ru": "Агдам"
		},
		"fullNames": {
			"ru": "Азербайджан, Агдам"
		}
	},
	{
		"geonameid": "584596",
		"name": "Zaqatala",
		"latitude": "41.6316",
		"longitude": "46.64479",
		"country_code": "AZ",
		"timezone": "Asia/Baku",
		"names": {
			"ru": "Закаталы"
		},
		"fullNames": {
			"ru": "Азербайджан, Закаталы"
		}
	},
	{
		"geonameid": "584614",
		"name": "Zabrat",
		"latitude": "40.47746",
		"longitude": "49.94174",
		"country_code": "AZ",
		"timezone": "Asia/Baku",
		"names": {
			"ru": "Забрат"
		},
		"fullNames": {
			"ru": "Азербайджан, Забрат"
		}
	},
	{
		"geonameid": "584649",
		"name": "Yevlakh",
		"latitude": "40.61832",
		"longitude": "47.15014",
		"country_code": "AZ",
		"timezone": "Asia/Baku",
		"names": {
			"ru": "Евлах"
		},
		"fullNames": {
			"ru": "Азербайджан, Евлах"
		}
	},
	{
		"geonameid": "584716",
		"name": "Göygöl",
		"latitude": "40.58584",
		"longitude": "46.3189",
		"country_code": "AZ",
		"timezone": "Asia/Baku",
		"names": {
			"ru": "Ханлар"
		},
		"fullNames": {
			"ru": "Азербайджан, Ханлар"
		}
	},
	{
		"geonameid": "584717",
		"name": "Xaçmaz",
		"latitude": "41.46426",
		"longitude": "48.80565",
		"country_code": "AZ",
		"timezone": "Asia/Baku",
		"names": {
			"ru": "Хачмас"
		},
		"fullNames": {
			"ru": "Азербайджан, Хачмас"
		}
	},
	{
		"geonameid": "584791",
		"name": "Ujar",
		"latitude": "40.51902",
		"longitude": "47.65423",
		"country_code": "AZ",
		"timezone": "Asia/Baku",
		"names": {
			"ru": "Уджары"
		},
		"fullNames": {
			"ru": "Азербайджан, Уджары"
		}
	},
	{
		"geonameid": "584871",
		"name": "Terter",
		"latitude": "40.34201",
		"longitude": "46.93161",
		"country_code": "AZ",
		"timezone": "Asia/Baku",
		"names": {
			"ru": "Тертер"
		},
		"fullNames": {
			"ru": "Азербайджан, Тертер"
		}
	},
	{
		"geonameid": "584923",
		"name": "Sumqayıt",
		"latitude": "40.58972",
		"longitude": "49.66861",
		"country_code": "AZ",
		"timezone": "Asia/Baku",
		"names": {
			"ru": "Сумгаит"
		},
		"fullNames": {
			"ru": "Азербайджан, Сумгаит"
		}
	},
	{
		"geonameid": "585103",
		"name": "Qaraçuxur",
		"latitude": "40.39667",
		"longitude": "49.97361",
		"country_code": "AZ",
		"timezone": "Asia/Baku",
		"names": {
			"ru": "Гарачухур"
		},
		"fullNames": {
			"ru": "Азербайджан, Гарачухур"
		}
	},
	{
		"geonameid": "585152",
		"name": "Shamkhor",
		"latitude": "40.82975",
		"longitude": "46.0178",
		"country_code": "AZ",
		"timezone": "Asia/Baku",
		"names": {
			"ru": "Шамкир"
		},
		"fullNames": {
			"ru": "Азербайджан, Шамкир"
		}
	},
	{
		"geonameid": "585156",
		"name": "Shamakhi",
		"latitude": "40.63141",
		"longitude": "48.64137",
		"country_code": "AZ",
		"timezone": "Asia/Baku",
		"names": {
			"ru": "Шемаха"
		},
		"fullNames": {
			"ru": "Азербайджан, Шемаха"
		}
	},
	{
		"geonameid": "585170",
		"name": "Sheki",
		"latitude": "41.19194",
		"longitude": "47.17056",
		"country_code": "AZ",
		"timezone": "Asia/Baku",
		"names": {
			"ru": "Шеки"
		},
		"fullNames": {
			"ru": "Азербайджан, Шеки"
		}
	},
	{
		"geonameid": "585184",
		"name": "Sabunçu",
		"latitude": "40.4425",
		"longitude": "49.94806",
		"country_code": "AZ",
		"timezone": "Asia/Baku",
		"names": {
			"ru": "Сабунчи"
		},
		"fullNames": {
			"ru": "Азербайджан, Сабунчи"
		}
	},
	{
		"geonameid": "585187",
		"name": "Sabirabad",
		"latitude": "40.00869",
		"longitude": "48.47701",
		"country_code": "AZ",
		"timezone": "Asia/Baku",
		"names": {
			"ru": "Сабирабад"
		},
		"fullNames": {
			"ru": "Азербайджан, Сабирабад"
		}
	},
	{
		"geonameid": "585220",
		"name": "Qusar",
		"latitude": "41.4275",
		"longitude": "48.4302",
		"country_code": "AZ",
		"timezone": "Asia/Baku",
		"names": {
			"ru": "Кусары"
		},
		"fullNames": {
			"ru": "Азербайджан, Кусары"
		}
	},
	{
		"geonameid": "585221",
		"name": "Quba",
		"latitude": "41.36108",
		"longitude": "48.51341",
		"country_code": "AZ",
		"timezone": "Asia/Baku",
		"names": {
			"ru": "Куба"
		},
		"fullNames": {
			"ru": "Азербайджан, Куба"
		}
	},
	{
		"geonameid": "585225",
		"name": "Hacıqabul",
		"latitude": "40.03874",
		"longitude": "48.94286",
		"country_code": "AZ",
		"timezone": "Asia/Baku",
		"names": {
			"ru": "Кази-Магомед"
		},
		"fullNames": {
			"ru": "Азербайджан, Кази-Магомед"
		}
	},
	{
		"geonameid": "585226",
		"name": "Qazax",
		"latitude": "41.09246",
		"longitude": "45.36561",
		"country_code": "AZ",
		"timezone": "Asia/Baku",
		"names": {
			"ru": "Казах"
		},
		"fullNames": {
			"ru": "Азербайджан, Казах"
		}
	},
	{
		"geonameid": "585514",
		"name": "Mingelchaur",
		"latitude": "40.76395",
		"longitude": "47.05953",
		"country_code": "AZ",
		"timezone": "Asia/Baku",
		"names": {
			"ru": "Мингечаур"
		},
		"fullNames": {
			"ru": "Азербайджан, Мингечаур"
		}
	},
	{
		"geonameid": "585557",
		"name": "Maştağa",
		"latitude": "40.52983",
		"longitude": "50.00616",
		"country_code": "AZ",
		"timezone": "Asia/Baku",
		"names": {
			"ru": "Маштага"
		},
		"fullNames": {
			"ru": "Азербайджан, Маштага"
		}
	},
	{
		"geonameid": "585568",
		"name": "Mardakan",
		"latitude": "40.49182",
		"longitude": "50.14292",
		"country_code": "AZ",
		"timezone": "Asia/Baku",
		"names": {
			"ru": "Мардакян"
		},
		"fullNames": {
			"ru": "Азербайджан, Мардакян"
		}
	},
	{
		"geonameid": "585630",
		"name": "Lökbatan",
		"latitude": "40.3256",
		"longitude": "49.73376",
		"country_code": "AZ",
		"timezone": "Asia/Baku",
		"names": {
			"ru": "Локбатан"
		},
		"fullNames": {
			"ru": "Азербайджан, Локбатан"
		}
	},
	{
		"geonameid": "585763",
		"name": "Kyurdarmir",
		"latitude": "40.34257",
		"longitude": "48.15649",
		"country_code": "AZ",
		"timezone": "Asia/Baku",
		"names": {
			"ru": "Кюрдамир"
		},
		"fullNames": {
			"ru": "Азербайджан, Кюрдамир"
		}
	},
	{
		"geonameid": "585915",
		"name": "Khirdalan",
		"latitude": "40.44808",
		"longitude": "49.75502",
		"country_code": "AZ",
		"timezone": "Asia/Baku",
		"names": {
			"ru": "Хырдалан"
		},
		"fullNames": {
			"ru": "Азербайджан, Хырдалан"
		}
	},
	{
		"geonameid": "586427",
		"name": "Göyçay",
		"latitude": "40.65055",
		"longitude": "47.74219",
		"country_code": "AZ",
		"timezone": "Asia/Baku",
		"names": {
			"ru": "Геокчай"
		},
		"fullNames": {
			"ru": "Азербайджан, Геокчай"
		}
	},
	{
		"geonameid": "586429",
		"name": "Hövsan",
		"latitude": "40.37444",
		"longitude": "50.08528",
		"country_code": "AZ",
		"timezone": "Asia/Baku",
		"names": {
			"ru": "Говсан"
		},
		"fullNames": {
			"ru": "Азербайджан, Говсан"
		}
	},
	{
		"geonameid": "586523",
		"name": "Ganja",
		"latitude": "40.68278",
		"longitude": "46.36056",
		"country_code": "AZ",
		"timezone": "Asia/Baku",
		"names": {
			"ru": "Гянджа"
		},
		"fullNames": {
			"ru": "Азербайджан, Гянджа"
		}
	},
	{
		"geonameid": "586763",
		"name": "Divichibazar",
		"latitude": "41.20117",
		"longitude": "48.98712",
		"country_code": "AZ",
		"timezone": "Asia/Baku",
		"names": {
			"ru": "Дивичи"
		},
		"fullNames": {
			"ru": "Азербайджан, Дивичи"
		}
	},
	{
		"geonameid": "586925",
		"name": "Buzovna",
		"latitude": "40.51903",
		"longitude": "50.11438",
		"country_code": "AZ",
		"timezone": "Asia/Baku",
		"names": {
			"ru": "Бузовна"
		},
		"fullNames": {
			"ru": "Азербайджан, Бузовна"
		}
	},
	{
		"geonameid": "586968",
		"name": "Biny Selo",
		"latitude": "40.45076",
		"longitude": "50.08686",
		"country_code": "AZ",
		"timezone": "Asia/Baku",
		"names": {
			"ru": "Бина"
		},
		"fullNames": {
			"ru": "Азербайджан, Бина"
		}
	},
	{
		"geonameid": "587057",
		"name": "Barda",
		"latitude": "40.37577",
		"longitude": "47.12619",
		"country_code": "AZ",
		"timezone": "Asia/Baku",
		"names": {
			"ru": "Барда"
		},
		"fullNames": {
			"ru": "Азербайджан, Барда"
		}
	},
	{
		"geonameid": "587078",
		"name": "Bilajari",
		"latitude": "40.4444",
		"longitude": "49.80566",
		"country_code": "AZ",
		"timezone": "Asia/Baku",
		"names": {
			"ru": "Баладжары"
		},
		"fullNames": {
			"ru": "Азербайджан, Баладжары"
		}
	},
	{
		"geonameid": "587084",
		"name": "Baku",
		"latitude": "40.37767",
		"longitude": "49.89201",
		"country_code": "AZ",
		"timezone": "Asia/Baku",
		"names": {
			"ru": "Баку"
		},
		"fullNames": {
			"ru": "Азербайджан, Баку"
		}
	},
	{
		"geonameid": "587361",
		"name": "Aghsu",
		"latitude": "40.57028",
		"longitude": "48.40087",
		"country_code": "AZ",
		"timezone": "Asia/Baku",
		"names": {
			"ru": "Ахсу"
		},
		"fullNames": {
			"ru": "Азербайджан, Ахсу"
		}
	},
	{
		"geonameid": "587378",
		"name": "Ağdaş",
		"latitude": "40.64699",
		"longitude": "47.4738",
		"country_code": "AZ",
		"timezone": "Asia/Baku",
		"names": {
			"ru": "Агдаш"
		},
		"fullNames": {
			"ru": "Азербайджан, Агдаш"
		}
	},
	{
		"geonameid": "587384",
		"name": "Agdzhabedy",
		"latitude": "40.05015",
		"longitude": "47.45937",
		"country_code": "AZ",
		"timezone": "Asia/Baku",
		"names": {
			"ru": "Агджабеди"
		},
		"fullNames": {
			"ru": "Азербайджан, Агджабеди"
		}
	},
	{
		"geonameid": "824003",
		"name": "Bakıxanov",
		"latitude": "40.41894",
		"longitude": "49.96693",
		"country_code": "AZ",
		"timezone": "Asia/Baku",
		"names": {
			"ru": "Бакиханова"
		},
		"fullNames": {
			"ru": "Азербайджан, Бакиханова"
		}
	},
	{
		"geonameid": "3186573",
		"name": "Zenica",
		"latitude": "44.20169",
		"longitude": "17.90397",
		"country_code": "BA",
		"timezone": "Europe/Sarajevo",
		"names": {
			"ru": "Зеница"
		},
		"fullNames": {
			"ru": "Босния и Герцеговина, Зеница"
		}
	},
	{
		"geonameid": "3187609",
		"name": "Visoko",
		"latitude": "43.98889",
		"longitude": "18.17806",
		"country_code": "BA",
		"timezone": "Europe/Sarajevo",
		"names": {
			"ru": "Високо"
		},
		"fullNames": {
			"ru": "Босния и Герцеговина, Високо"
		}
	},
	{
		"geonameid": "3188225",
		"name": "Velika Kladuša",
		"latitude": "45.18497",
		"longitude": "15.80579",
		"country_code": "BA",
		"timezone": "Europe/Sarajevo",
		"names": {
			"ru": "Велика-Кладуша"
		},
		"fullNames": {
			"ru": "Босния и Герцеговина, Велика-Кладуша"
		}
	},
	{
		"geonameid": "3188582",
		"name": "Tuzla",
		"latitude": "44.53842",
		"longitude": "18.66709",
		"country_code": "BA",
		"timezone": "Europe/Sarajevo",
		"names": {
			"ru": "Тузла"
		},
		"fullNames": {
			"ru": "Босния и Герцеговина, Тузла"
		}
	},
	{
		"geonameid": "3188893",
		"name": "Trebinje",
		"latitude": "42.71197",
		"longitude": "18.34362",
		"country_code": "BA",
		"timezone": "Europe/Sarajevo",
		"names": {
			"ru": "Требинье"
		},
		"fullNames": {
			"ru": "Босния и Герцеговина, Требинье"
		}
	},
	{
		"geonameid": "3188924",
		"name": "Travnik",
		"latitude": "44.22637",
		"longitude": "17.66583",
		"country_code": "BA",
		"timezone": "Europe/Sarajevo",
		"names": {
			"ru": "Травник"
		},
		"fullNames": {
			"ru": "Босния и Герцеговина, Травник"
		}
	},
	{
		"geonameid": "3191281",
		"name": "Sarajevo",
		"latitude": "43.84864",
		"longitude": "18.35644",
		"country_code": "BA",
		"timezone": "Europe/Sarajevo",
		"names": {
			"ru": "Сараево"
		},
		"fullNames": {
			"ru": "Босния и Герцеговина, Сараево"
		}
	},
	{
		"geonameid": "3192409",
		"name": "Prijedor",
		"latitude": "44.97991",
		"longitude": "16.71401",
		"country_code": "BA",
		"timezone": "Europe/Sarajevo",
		"names": {
			"ru": "Приедора"
		},
		"fullNames": {
			"ru": "Босния и Герцеговина, Приедора"
		}
	},
	{
		"geonameid": "3194828",
		"name": "Mostar",
		"latitude": "43.34333",
		"longitude": "17.80806",
		"country_code": "BA",
		"timezone": "Europe/Sarajevo",
		"names": {
			"ru": "Мостар"
		},
		"fullNames": {
			"ru": "Босния и Герцеговина, Мостар"
		}
	},
	{
		"geonameid": "3199779",
		"name": "Gračanica",
		"latitude": "44.70307",
		"longitude": "18.3101",
		"country_code": "BA",
		"timezone": "Europe/Sarajevo",
		"names": {
			"ru": "Грачаница"
		},
		"fullNames": {
			"ru": "Босния и Герцеговина, Грачаница"
		}
	},
	{
		"geonameid": "3200396",
		"name": "Goražde",
		"latitude": "43.66795",
		"longitude": "18.97564",
		"country_code": "BA",
		"timezone": "Europe/Sarajevo",
		"names": {
			"ru": "Горажде"
		},
		"fullNames": {
			"ru": "Босния и Герцеговина, Горажде"
		}
	},
	{
		"geonameid": "3201984",
		"name": "Doboj",
		"latitude": "44.73179",
		"longitude": "18.08698",
		"country_code": "BA",
		"timezone": "Europe/Sarajevo",
		"names": {
			"ru": "Добой"
		},
		"fullNames": {
			"ru": "Босния и Герцеговина, Добой"
		}
	},
	{
		"geonameid": "3203099",
		"name": "Bugojno",
		"latitude": "44.05722",
		"longitude": "17.45083",
		"country_code": "BA",
		"timezone": "Europe/Sarajevo",
		"names": {
			"ru": "Бугойно"
		},
		"fullNames": {
			"ru": "Босния и Герцеговина, Бугойно"
		}
	},
	{
		"geonameid": "3203521",
		"name": "Brčko",
		"latitude": "44.86995",
		"longitude": "18.81012",
		"country_code": "BA",
		"timezone": "Europe/Sarajevo",
		"names": {
			"ru": "Брчко"
		},
		"fullNames": {
			"ru": "Босния и Герцеговина, Брчко"
		}
	},
	{
		"geonameid": "3203653",
		"name": "Bosanska Krupa",
		"latitude": "44.8825",
		"longitude": "16.15139",
		"country_code": "BA",
		"timezone": "Europe/Sarajevo",
		"names": {
			"ru": "Босанска Крупа"
		},
		"fullNames": {
			"ru": "Босния и Герцеговина, Босанска Крупа"
		}
	},
	{
		"geonameid": "3204186",
		"name": "Bijeljina",
		"latitude": "44.75874",
		"longitude": "19.21437",
		"country_code": "BA",
		"timezone": "Europe/Sarajevo",
		"names": {
			"ru": "Биелине"
		},
		"fullNames": {
			"ru": "Босния и Герцеговина, Биелине"
		}
	},
	{
		"geonameid": "3204222",
		"name": "Bihać",
		"latitude": "44.81694",
		"longitude": "15.87083",
		"country_code": "BA",
		"timezone": "Europe/Sarajevo",
		"names": {
			"ru": "Бихач"
		},
		"fullNames": {
			"ru": "Босния и Герцеговина, Бихач"
		}
	},
	{
		"geonameid": "3204541",
		"name": "Banja Luka",
		"latitude": "44.77842",
		"longitude": "17.19386",
		"country_code": "BA",
		"timezone": "Europe/Sarajevo",
		"names": {
			"ru": "Баня-Лука"
		},
		"fullNames": {
			"ru": "Босния и Герцеговина, Баня-Лука"
		}
	},
	{
		"geonameid": "3374036",
		"name": "Bridgetown",
		"latitude": "13.10732",
		"longitude": "-59.62021",
		"country_code": "BB",
		"timezone": "America/Barbados",
		"names": {
			"ru": "Бриджтаун"
		},
		"fullNames": {
			"ru": "Барбадос, Бриджтаун"
		}
	},
	{
		"geonameid": "1185092",
		"name": "Thākurgaon",
		"latitude": "26.03097",
		"longitude": "88.46989",
		"country_code": "BD",
		"timezone": "Asia/Dhaka",
		"names": {
			"ru": "Тхакургаон"
		},
		"fullNames": {
			"ru": "Бангладеш, Тхакургаон"
		}
	},
	{
		"geonameid": "1185099",
		"name": "Sylhet",
		"latitude": "24.89904",
		"longitude": "91.87198",
		"country_code": "BD",
		"timezone": "Asia/Dhaka",
		"names": {
			"ru": "Силхет"
		},
		"fullNames": {
			"ru": "Бангладеш, Силхет"
		}
	},
	{
		"geonameid": "1185107",
		"name": "Shibganj",
		"latitude": "25.00146",
		"longitude": "89.32266",
		"country_code": "BD",
		"timezone": "Asia/Dhaka",
		"names": {
			"ru": "Шибгандж"
		},
		"fullNames": {
			"ru": "Бангладеш, Шибгандж"
		}
	},
	{
		"geonameid": "1185115",
		"name": "Sirajganj",
		"latitude": "24.45771",
		"longitude": "89.70802",
		"country_code": "BD",
		"timezone": "Asia/Dhaka",
		"names": {
			"ru": "Сираджгандж"
		},
		"fullNames": {
			"ru": "Бангладеш, Сираджгандж"
		}
	},
	{
		"geonameid": "1185120",
		"name": "Sandwīp",
		"latitude": "22.51409",
		"longitude": "91.45491",
		"country_code": "BD",
		"timezone": "Asia/Dhaka",
		"names": {
			"ru": "Сандвип"
		},
		"fullNames": {
			"ru": "Бангладеш, Сандвип"
		}
	},
	{
		"geonameid": "1185128",
		"name": "Rājshāhi",
		"latitude": "24.374",
		"longitude": "88.60114",
		"country_code": "BD",
		"timezone": "Asia/Dhaka",
		"names": {
			"ru": "Раджшахи"
		},
		"fullNames": {
			"ru": "Бангладеш, Раджшахи"
		}
	},
	{
		"geonameid": "1185162",
		"name": "Mymensingh",
		"latitude": "24.75636",
		"longitude": "90.40646",
		"country_code": "BD",
		"timezone": "Asia/Dhaka",
		"names": {
			"ru": "Майменсингх"
		},
		"fullNames": {
			"ru": "Бангладеш, Майменсингх"
		}
	},
	{
		"geonameid": "1185165",
		"name": "Mirzāpur",
		"latitude": "24.10287",
		"longitude": "90.09841",
		"country_code": "BD",
		"timezone": "Asia/Dhaka",
		"names": {
			"ru": "Мирзапур"
		},
		"fullNames": {
			"ru": "Бангладеш, Мирзапур"
		}
	},
	{
		"geonameid": "1185186",
		"name": "Comilla",
		"latitude": "23.46186",
		"longitude": "91.18503",
		"country_code": "BD",
		"timezone": "Asia/Dhaka",
		"names": {
			"ru": "Комилле"
		},
		"fullNames": {
			"ru": "Бангладеш, Комилле"
		}
	},
	{
		"geonameid": "1185188",
		"name": "Rangpur",
		"latitude": "25.74664",
		"longitude": "89.25166",
		"country_code": "BD",
		"timezone": "Asia/Dhaka",
		"names": {
			"ru": "Рангпур"
		},
		"fullNames": {
			"ru": "Бангладеш, Рангпур"
		}
	},
	{
		"geonameid": "1185236",
		"name": "Rāipur",
		"latitude": "23.0391",
		"longitude": "90.76808",
		"country_code": "BD",
		"timezone": "Asia/Dhaka",
		"names": {
			"ru": "Райпур"
		},
		"fullNames": {
			"ru": "Бангладеш, Райпур"
		}
	},
	{
		"geonameid": "1185241",
		"name": "Dhaka",
		"latitude": "23.7104",
		"longitude": "90.40744",
		"country_code": "BD",
		"timezone": "Asia/Dhaka",
		"names": {
			"ru": "Дакка"
		},
		"fullNames": {
			"ru": "Бангладеш, Дакка"
		}
	},
	{
		"geonameid": "1185252",
		"name": "Khagrachhari",
		"latitude": "23.10787",
		"longitude": "91.97007",
		"country_code": "BD",
		"timezone": "Asia/Dhaka",
		"names": {
			"ru": "Кхаграчари"
		},
		"fullNames": {
			"ru": "Бангладеш, Кхаграчари"
		}
	},
	{
		"geonameid": "1185270",
		"name": "Bāndarban",
		"latitude": "22.19534",
		"longitude": "92.21946",
		"country_code": "BD",
		"timezone": "Asia/Dhaka",
		"names": {
			"ru": "Бандарбан"
		},
		"fullNames": {
			"ru": "Бангладеш, Бандарбан"
		}
	},
	{
		"geonameid": "1185272",
		"name": "Kālia",
		"latitude": "23.043",
		"longitude": "89.63094",
		"country_code": "BD",
		"timezone": "Asia/Dhaka",
		"names": {
			"ru": "Калия"
		},
		"fullNames": {
			"ru": "Бангладеш, Калия"
		}
	},
	{
		"geonameid": "1185281",
		"name": "Bagerhat",
		"latitude": "22.65657",
		"longitude": "89.79123",
		"country_code": "BD",
		"timezone": "Asia/Dhaka",
		"names": {
			"ru": "Багерхат"
		},
		"fullNames": {
			"ru": "Бангладеш, Багерхат"
		}
	},
	{
		"geonameid": "1187530",
		"name": "Sonārgaon",
		"latitude": "23.65",
		"longitude": "90.61667",
		"country_code": "BD",
		"timezone": "Asia/Dhaka",
		"names": {
			"ru": "Сонаргаон"
		},
		"fullNames": {
			"ru": "Бангладеш, Сонаргаон"
		}
	},
	{
		"geonameid": "1205733",
		"name": "Chattogram",
		"latitude": "22.3384",
		"longitude": "91.83168",
		"country_code": "BD",
		"timezone": "Asia/Dhaka",
		"names": {
			"ru": "Читтагонг"
		},
		"fullNames": {
			"ru": "Бангладеш, Читтагонг"
		}
	},
	{
		"geonameid": "1209562",
		"name": "Bera",
		"latitude": "24.07821",
		"longitude": "89.63262",
		"country_code": "BD",
		"timezone": "Asia/Dhaka",
		"names": {
			"ru": "Беру"
		},
		"fullNames": {
			"ru": "Бангладеш, Беру"
		}
	},
	{
		"geonameid": "1336134",
		"name": "Cox’s Bāzār",
		"latitude": "21.43973",
		"longitude": "92.00955",
		"country_code": "BD",
		"timezone": "Asia/Dhaka",
		"names": {
			"ru": "Кокс-Базар"
		},
		"fullNames": {
			"ru": "Бангладеш, Кокс-Базар"
		}
	},
	{
		"geonameid": "1336135",
		"name": "Khulna",
		"latitude": "22.80979",
		"longitude": "89.56439",
		"country_code": "BD",
		"timezone": "Asia/Dhaka",
		"names": {
			"ru": "Кхулна"
		},
		"fullNames": {
			"ru": "Бангладеш, Кхулна"
		}
	},
	{
		"geonameid": "1336136",
		"name": "Bhola",
		"latitude": "22.68759",
		"longitude": "90.64403",
		"country_code": "BD",
		"timezone": "Asia/Dhaka",
		"names": {
			"ru": "Бхола"
		},
		"fullNames": {
			"ru": "Бангладеш, Бхола"
		}
	},
	{
		"geonameid": "1336137",
		"name": "Barishal",
		"latitude": "22.70497",
		"longitude": "90.37013",
		"country_code": "BD",
		"timezone": "Asia/Dhaka",
		"names": {
			"ru": "Барисал"
		},
		"fullNames": {
			"ru": "Бангладеш, Барисал"
		}
	},
	{
		"geonameid": "1336143",
		"name": "Pābna",
		"latitude": "24.00644",
		"longitude": "89.2372",
		"country_code": "BD",
		"timezone": "Asia/Dhaka",
		"names": {
			"ru": "Пабне"
		},
		"fullNames": {
			"ru": "Бангладеш, Пабне"
		}
	},
	{
		"geonameid": "1337233",
		"name": "Bogra",
		"latitude": "24.85098",
		"longitude": "89.37108",
		"country_code": "BD",
		"timezone": "Asia/Dhaka",
		"names": {
			"ru": "Богра"
		},
		"fullNames": {
			"ru": "Бангладеш, Богра"
		}
	},
	{
		"geonameid": "7483743",
		"name": "Puthia",
		"latitude": "24.36537",
		"longitude": "88.83431",
		"country_code": "BD",
		"timezone": "Asia/Dhaka",
		"names": {
			"ru": "Путхия"
		},
		"fullNames": {
			"ru": "Бангладеш, Путхия"
		}
	},
	{
		"geonameid": "7483813",
		"name": "Natore",
		"latitude": "24.41112",
		"longitude": "88.98673",
		"country_code": "BD",
		"timezone": "Asia/Dhaka",
		"names": {
			"ru": "Натор"
		},
		"fullNames": {
			"ru": "Бангладеш, Натор"
		}
	},
	{
		"geonameid": "2783081",
		"name": "Zwijndrecht",
		"latitude": "51.21979",
		"longitude": "4.32664",
		"country_code": "BE",
		"timezone": "Europe/Brussels",
		"names": {
			"ru": "Звейндрехт"
		},
		"fullNames": {
			"ru": "Бельгия, Звейндрехт"
		}
	},
	{
		"geonameid": "2783089",
		"name": "Zwevegem",
		"latitude": "50.81268",
		"longitude": "3.33848",
		"country_code": "BE",
		"timezone": "Europe/Brussels",
		"names": {
			"ru": "Звевегем"
		},
		"fullNames": {
			"ru": "Бельгия, Звевегем"
		}
	},
	{
		"geonameid": "2783175",
		"name": "Zottegem",
		"latitude": "50.86955",
		"longitude": "3.81052",
		"country_code": "BE",
		"timezone": "Europe/Brussels",
		"names": {
			"ru": "Зоттегем"
		},
		"fullNames": {
			"ru": "Бельгия, Зоттегем"
		}
	},
	{
		"geonameid": "2783188",
		"name": "Zonhoven",
		"latitude": "50.99064",
		"longitude": "5.36819",
		"country_code": "BE",
		"timezone": "Europe/Brussels",
		"names": {
			"ru": "Зонховен"
		},
		"fullNames": {
			"ru": "Бельгия, Зонховен"
		}
	},
	{
		"geonameid": "2783274",
		"name": "Zemst",
		"latitude": "50.98318",
		"longitude": "4.46079",
		"country_code": "BE",
		"timezone": "Europe/Brussels",
		"names": {
			"ru": "Земст"
		},
		"fullNames": {
			"ru": "Бельгия, Земст"
		}
	},
	{
		"geonameid": "2783293",
		"name": "Zele",
		"latitude": "51.06566",
		"longitude": "4.0403",
		"country_code": "BE",
		"timezone": "Europe/Brussels",
		"names": {
			"ru": "Зеле"
		},
		"fullNames": {
			"ru": "Бельгия, Зеле"
		}
	},
	{
		"geonameid": "2783308",
		"name": "Zedelgem",
		"latitude": "51.14236",
		"longitude": "3.1368",
		"country_code": "BE",
		"timezone": "Europe/Brussels",
		"names": {
			"ru": "Зедельгем"
		},
		"fullNames": {
			"ru": "Бельгия, Зедельгем"
		}
	},
	{
		"geonameid": "2783310",
		"name": "Zaventem",
		"latitude": "50.88365",
		"longitude": "4.47298",
		"country_code": "BE",
		"timezone": "Europe/Brussels",
		"names": {
			"ru": "Завентем"
		},
		"fullNames": {
			"ru": "Бельгия, Завентем"
		}
	},
	{
		"geonameid": "2783476",
		"name": "Woluwe-Saint-Lambert",
		"latitude": "50.84389",
		"longitude": "4.42912",
		"country_code": "BE",
		"timezone": "Europe/Brussels",
		"names": {
			"ru": "Волюве-Сен-Ламбер"
		},
		"fullNames": {
			"ru": "Бельгия, Волюве-Сен-Ламбер"
		}
	},
	{
		"geonameid": "2783615",
		"name": "Wilrijk",
		"latitude": "51.16734",
		"longitude": "4.39513",
		"country_code": "BE",
		"timezone": "Europe/Brussels",
		"names": {
			"ru": "Вилрейк"
		},
		"fullNames": {
			"ru": "Бельгия, Вилрейк"
		}
	},
	{
		"geonameid": "2783632",
		"name": "Willebroek",
		"latitude": "51.06041",
		"longitude": "4.36019",
		"country_code": "BE",
		"timezone": "Europe/Brussels",
		"names": {
			"ru": "Виллебрук"
		},
		"fullNames": {
			"ru": "Бельгия, Виллебрук"
		}
	},
	{
		"geonameid": "2783759",
		"name": "Wevelgem",
		"latitude": "50.8",
		"longitude": "3.16667",
		"country_code": "BE",
		"timezone": "Europe/Brussels",
		"names": {
			"ru": "Вевельгеме"
		},
		"fullNames": {
			"ru": "Бельгия, Вевельгеме"
		}
	},
	{
		"geonameid": "2783763",
		"name": "Wetteren",
		"latitude": "51.00526",
		"longitude": "3.88341",
		"country_code": "BE",
		"timezone": "Europe/Brussels",
		"names": {
			"ru": "Веттерен"
		},
		"fullNames": {
			"ru": "Бельгия, Веттерен"
		}
	},
	{
		"geonameid": "2783801",
		"name": "Westerlo",
		"latitude": "51.09049",
		"longitude": "4.91544",
		"country_code": "BE",
		"timezone": "Europe/Brussels",
		"names": {
			"ru": "Вестерло"
		},
		"fullNames": {
			"ru": "Бельгия, Вестерло"
		}
	},
	{
		"geonameid": "2783941",
		"name": "Wavre",
		"latitude": "50.71717",
		"longitude": "4.60138",
		"country_code": "BE",
		"timezone": "Europe/Brussels",
		"names": {
			"ru": "Вавр"
		},
		"fullNames": {
			"ru": "Бельгия, Вавр"
		}
	},
	{
		"geonameid": "2783979",
		"name": "Watermael-Boitsfort",
		"latitude": "50.80154",
		"longitude": "4.41436",
		"country_code": "BE",
		"timezone": "Europe/Brussels",
		"names": {
			"ru": "Ватермаль-Буафор"
		},
		"fullNames": {
			"ru": "Бельгия, Ватермаль-Буафор"
		}
	},
	{
		"geonameid": "2783985",
		"name": "Waterloo",
		"latitude": "50.71469",
		"longitude": "4.3991",
		"country_code": "BE",
		"timezone": "Europe/Brussels",
		"names": {
			"ru": "Ватерлоо"
		},
		"fullNames": {
			"ru": "Бельгия, Ватерлоо"
		}
	},
	{
		"geonameid": "2784068",
		"name": "Waregem",
		"latitude": "50.88898",
		"longitude": "3.42756",
		"country_code": "BE",
		"timezone": "Europe/Brussels",
		"names": {
			"ru": "Варегем"
		},
		"fullNames": {
			"ru": "Бельгия, Варегем"
		}
	},
	{
		"geonameid": "2784189",
		"name": "Walcourt",
		"latitude": "50.25401",
		"longitude": "4.43796",
		"country_code": "BE",
		"timezone": "Europe/Brussels",
		"names": {
			"ru": "Валькур"
		},
		"fullNames": {
			"ru": "Бельгия, Валькур"
		}
	},